City_ID,City,Lat,Lng,Max Temp,Humidity,Cloudiness,Wind Speed,Country,Date
0,waitangi,-43.9535,-176.5597,56.82,90,43,7.0,NZ,1684188119
1,jamestown,42.097,-79.2353,65.84,19,0,9.22,US,1684188120
2,el bolson,-41.9667,-71.5167,53.42,90,92,4.88,AR,1684188050
3,port mathurin,-19.6833,63.4167,77.92,75,31,16.67,MU,1684188121
4,umm kaddadah,13.6017,26.6876,85.42,10,1,9.69,SD,1684188121
5,thompson,55.7435,-97.8558,69.96,40,40,23.02,CA,1684188108
6,puerto natales,-51.7236,-72.4875,42.48,93,96,4.45,CL,1684188123
7,iskateley,67.6803,53.1512,31.87,98,75,4.36,RU,1684188124
8,bandar lampung,-5.4254,105.258,75.13,94,57,4.14,ID,1684188125
9,vadso,70.0744,29.7487,58.08,81,0,13.8,NO,1684188125
10,edinburgh of the seven seas,-37.0676,-12.3116,60.33,89,100,6.29,SH,1684188126
11,fale old settlement,-9.3852,-171.2468,83.52,75,8,8.79,TK,1684188127
12,atafu village,-8.5421,-172.5159,82.92,78,77,7.23,TK,1684188128
13,uturoa,-16.7333,-151.4333,81.27,73,2,4.74,PF,1684188129
14,adamstown,-25.066,-130.1015,75.56,85,1,21.59,PN,1684188129
15,pangody,65.85,74.4859,26.53,93,98,17.69,RU,1684188130
16,udachny,66.4167,112.4,32.45,80,95,2.04,RU,1684188130
17,albany,42.6001,-73.9662,70.59,29,82,12.57,US,1684188016
18,petropavlovsk-kamchatsky,53.0452,158.6483,46.99,71,0,11.18,RU,1684188132
19,west island,-12.1568,96.8225,80.58,74,40,9.22,CC,1684188133
20,kaa-khem,51.6833,94.7333,35.74,65,53,3.94,RU,1684188133
21,qaqortoq,60.7167,-46.0333,41.0,67,97,10.8,GL,1684188134
22,invercargill,-46.4,168.35,47.01,95,32,3.0,NZ,1684188135
23,kodiak,57.79,-152.4072,42.08,94,100,21.43,US,1684188021
24,hilo,19.7297,-155.09,82.27,88,100,1.01,US,1684188004
25,puerto ayora,-0.7393,-90.3518,85.96,86,79,8.01,EC,1684188138
26,aasiaat,68.7098,-52.8699,29.43,75,100,8.3,GL,1684188138
27,bure,10.7,37.0667,67.28,39,78,4.03,ET,1684188139
28,port-aux-francais,-49.35,70.2167,42.06,74,53,28.05,TF,1684188140
29,bilibino,68.0546,166.4372,22.91,81,74,1.99,RU,1684188141
30,probolinggo,-7.7543,113.2159,74.17,77,68,7.76,ID,1684188142
31,lodja,-3.4833,23.4333,73.63,82,32,2.28,CD,1684188142
32,longyearbyen,78.2186,15.6401,21.04,68,75,24.16,SJ,1684188143
33,kindu,-2.95,25.95,70.75,96,60,3.0,CD,1684188144
34,constantia,44.1833,28.65,57.88,79,100,11.25,RO,1684188145
35,stanley,54.868,-1.6985,48.22,85,40,2.3,GB,1684188146
36,buka,40.8108,69.1986,74.48,31,100,4.03,UZ,1684188147
37,mo i rana,66.3128,14.1428,49.32,82,75,2.3,NO,1684188147
38,kapuskasing,49.4169,-82.4331,69.89,37,100,13.8,CA,1684187934
39,san patricio,28.017,-97.5169,84.06,75,100,7.9,US,1684188149
40,san antonio de pale,-1.4014,5.6325,82.06,82,94,14.94,GQ,1684188150
41,ushuaia,-54.8,-68.3,46.02,76,75,29.93,AR,1684188151
42,bethel,41.3712,-73.414,75.63,33,39,3.0,US,1684188151
43,utrik,11.2278,169.8474,81.23,80,99,17.2,MH,1684188152
44,whitehorse,60.7161,-135.0538,62.1,23,20,3.44,CA,1684188156
45,badger,64.8,-147.5333,64.0,29,75,13.8,US,1684188003
46,lebu,-37.6167,-73.65,57.38,79,95,13.78,CL,1684188157
47,lihue,21.9789,-159.3672,74.35,72,22,7.52,US,1684188057
48,machico,32.7,-16.7667,69.01,82,75,16.11,PT,1684188158
49,poquoson,37.1224,-76.3458,73.02,59,40,4.61,US,1684187996
50,serenje,-13.2325,30.2352,61.93,61,81,4.59,ZM,1684188159
51,st. john's,47.5649,-52.7093,49.39,63,20,23.02,CA,1684187994
52,ust-nera,64.5667,143.2,35.22,87,97,5.37,RU,1684188160
53,grytviken,-54.2811,-36.5092,33.44,88,91,7.34,GS,1684188160
54,al majaridah,19.1236,41.9111,88.59,47,0,1.23,SA,1684188161
55,hawaiian paradise park,19.5933,-154.9731,76.03,84,100,1.01,US,1684188162
56,dryden,49.7833,-92.7503,77.29,22,0,18.41,CA,1684188162
57,yellowknife,62.456,-114.3525,52.32,76,100,10.36,CA,1684188049
58,loango,-4.6719,11.8312,80.26,89,20,6.91,CG,1684188163
59,san juan de miraflores,-12.1629,-76.9635,77.16,70,62,7.52,PE,1684188163
60,carutapera,-1.195,-46.02,78.82,89,24,6.91,BR,1684188169
61,kargasok,59.0556,80.8572,38.44,59,95,8.81,RU,1684188169
62,santa marta,11.2408,-74.199,89.65,66,75,6.91,CO,1684188171
63,saint-francois,46.4154,3.9054,51.96,87,0,6.91,FR,1684188160
64,pisco,-13.7,-76.2167,73.45,73,0,19.57,PE,1684188172
65,la foa,-21.7108,165.8276,73.44,67,72,3.96,NC,1684188172
66,oriximina,-1.7656,-55.8661,78.6,92,96,3.06,BR,1684188173
67,boa vista,2.8197,-60.6733,85.98,66,40,5.75,BR,1684187928
68,nizao,18.25,-70.2,86.36,68,64,10.09,DO,1684188174
69,alice springs,-23.7,133.8833,42.35,100,40,6.29,AU,1684188175
70,yokadouma,3.5167,15.05,71.62,99,100,2.19,CM,1684188176
71,port lincoln,-34.7333,135.8667,58.68,80,43,7.83,AU,1684188176
72,taoudenni,22.6783,-3.9836,89.1,10,37,12.59,ML,1684188177
73,tabou,4.423,-7.3528,77.97,90,100,5.93,CI,1684188178
74,chonchi,-42.6128,-73.8092,55.11,93,100,7.67,CL,1684188179
75,copala,16.65,-98.9833,87.57,56,2,8.84,MX,1684188179
76,mejit,10.2753,170.8646,81.57,78,88,17.72,MH,1684188180
77,keflavik,64.0049,-22.5624,39.11,70,20,4.61,IS,1684188180
78,olonkinbyen,70.9221,-8.7187,27.59,94,100,35.86,SJ,1684188181
79,richmond,37.5538,-77.4603,69.93,61,75,10.36,US,1684188055
80,tiksi,71.6872,128.8694,31.1,91,95,7.23,RU,1684188183
81,mizque,-17.941,-65.3402,65.12,50,0,4.52,BO,1684188185
82,klyuchi,52.2667,79.1667,48.51,64,14,5.97,RU,1684188185
83,larache,35.1932,-6.1557,63.27,80,0,3.74,MA,1684188187
84,wailua homesteads,22.0669,-159.378,73.74,72,49,4.0,US,1684188188
85,brezina,33.0989,1.2608,64.09,29,2,15.55,DZ,1684188189
86,anadyr,64.75,177.4833,21.7,79,0,8.95,RU,1684188190
87,trenggalek,-8.05,111.7167,71.83,91,48,2.33,ID,1684188190
88,sinabang,2.4803,96.3801,80.51,84,98,5.35,ID,1684188191
89,bhimunipatnam,17.8833,83.4333,85.51,83,44,6.53,IN,1684188192
90,caleta de carquin,-11.0925,-77.6267,72.63,75,37,9.44,PE,1684188192
91,quirinopolis,-18.4483,-50.4517,65.41,51,0,4.61,BR,1684188193
92,tofol,5.3248,163.0078,83.43,78,100,15.35,FM,1684188194
93,tura,25.5198,90.2201,68.74,94,0,4.83,IN,1684188195
94,rakops,-21.0167,24.3333,70.86,37,57,9.33,BW,1684188196
95,isafjordur,66.0755,-23.124,32.59,73,71,7.05,IS,1684188198
96,calama,-22.4667,-68.9333,72.09,12,0,19.57,CL,1684188031
97,sao felix do xingu,-6.6447,-51.995,77.14,86,79,3.87,BR,1684188055
98,bedong,5.7274,100.5088,80.56,94,100,2.06,MY,1684188200
99,papatowai,-46.5619,169.4708,51.82,67,7,7.05,NZ,1684188200
100,ingeniero jacobacci,-41.3427,-69.5448,56.66,45,100,8.84,AR,1684188201
101,weno,7.4515,151.8468,83.23,79,100,13.65,FM,1684188202
102,walvis bay,-22.9575,14.5053,57.09,88,0,3.44,NA,1684188203
103,prince rupert,54.3161,-130.3201,69.89,56,0,12.66,CA,1684187993
104,pohang,36.0322,129.365,64.49,75,0,5.66,KR,1684188205
105,codrington,-38.2667,141.9667,53.64,71,100,15.5,AU,1684188206
106,aqaba,29.5267,35.0078,78.66,34,0,6.91,JO,1684188207
107,port elizabeth,-33.918,25.5701,53.31,90,4,4.61,ZA,1684188018
108,bel ombre,-4.6167,55.4167,82.24,78,40,5.75,SC,1684188208
109,punta arenas,-53.15,-70.9167,46.51,71,75,9.22,CL,1684188209
110,banfora,10.6333,-4.7667,78.96,70,100,3.24,BF,1684188210
111,turtas,58.9417,69.1325,45.0,68,32,8.16,RU,1684188211
112,beidao,34.5686,105.8933,59.67,80,100,3.96,CN,1684188212
113,shorewood,41.52,-88.2017,72.28,36,0,6.91,US,1684188213
114,malmberget,67.1753,20.6549,47.17,83,61,4.5,SE,1684188214
115,cherdyn',60.403,56.4787,45.45,71,81,3.0,RU,1684188215
116,ilulissat,69.2167,-51.1,33.82,75,40,6.91,GL,1684188216
117,minas de marcona,-15.2119,-75.1103,63.64,73,12,12.08,PE,1684188217
118,asansol,23.6833,86.9833,82.9,58,13,6.64,IN,1684188153
119,talnakh,69.4865,88.3972,18.18,92,92,7.47,RU,1684188218
120,saipan,15.1355,145.701,81.64,100,86,5.99,MP,1684188218
121,iqaluit,63.7506,-68.5145,33.53,64,100,26.46,CA,1684188191
122,greymouth,-42.4667,171.2,48.58,77,45,4.63,NZ,1684188220
123,cabo san lucas,22.8909,-109.9124,86.61,50,20,11.5,MX,1684188197
124,margaret river,-33.95,115.0667,54.57,82,34,5.37,AU,1684188221
125,progreso,21.2833,-89.6667,82.51,66,28,15.08,MX,1684188221
126,oranjemund,-28.55,16.4333,58.19,68,0,8.23,NA,1684188222
127,bredasdorp,-34.5322,20.0403,53.01,88,14,1.57,ZA,1684188222
128,urengoy,65.9667,78.3667,27.34,95,99,13.04,RU,1684188223
129,askoy,60.4092,5.226,49.95,100,40,6.91,NO,1684188224
130,newman,37.3138,-121.0208,92.23,30,0,7.0,US,1684188224
131,teknaf,20.8624,92.3058,77.45,91,17,9.33,BD,1684188225
132,paita,-5.0892,-81.1144,78.58,72,86,14.63,PE,1684188066
133,charlottetown,46.2352,-63.1267,62.89,48,100,18.41,CA,1684188025
134,maine soroa,13.2114,12.0241,91.22,13,16,4.45,NE,1684188226
135,colonia,50.9333,6.95,54.82,80,100,13.8,DE,1684188011
136,hasaki,35.7333,140.8333,67.21,78,6,18.39,JP,1684188227
137,severo-yeniseyskiy,60.3725,93.0408,21.79,96,100,4.25,RU,1684188228
138,aioun,16.6614,-9.6149,95.92,17,81,4.05,MR,1684188228
139,carnarvon,-24.8667,113.6333,65.46,46,2,11.99,AU,1684188229
140,lompoc,34.6391,-120.4579,79.7,81,100,8.01,US,1684187938
141,taro,-8.3862,115.28,69.85,92,20,0.58,ID,1684188230
142,ludlow,42.1601,-72.4759,73.42,28,0,11.5,US,1684188231
143,katabu,-4.9333,122.5167,74.39,93,77,1.68,ID,1684188231
144,college,64.8569,-147.8028,64.09,30,75,13.8,US,1684188001
145,la gi,10.6667,107.7833,80.74,84,14,3.51,VN,1684188232
146,georgetown,5.4112,100.3354,80.55,93,20,3.44,MY,1684188110
147,guatire,10.4762,-66.5427,79.34,79,99,2.48,VE,1684188233
148,kruisfontein,-34.0033,24.7314,48.88,85,6,3.33,ZA,1684188234
149,entebbe,0.0644,32.4469,75.52,78,20,3.44,UG,1684188234
150,burang,30.25,81.1667,25.99,69,14,1.52,CN,1684188235
151,arawa,-6.2132,155.5367,81.77,76,90,1.83,PG,1684188049
152,podgornaya,44.2031,43.4297,50.85,74,19,6.69,RU,1684188236
153,gadzhiyevo,69.2551,33.3362,46.53,78,40,12.48,RU,1684188236
154,sitka,57.0531,-135.33,62.01,46,0,6.67,US,1684188206
155,burabay,53.0838,70.3138,49.6,60,16,4.54,KZ,1684188237
156,springbok,-29.6643,17.8865,53.42,48,0,8.16,ZA,1684188238
157,aktobe,50.2797,57.2072,53.69,54,0,8.95,KZ,1684188128
158,ribeira grande,38.5167,-28.7,65.77,94,85,8.01,PT,1684188239
159,vilyuchinsk,52.9306,158.4028,48.47,80,18,3.69,RU,1684188239
160,beyneu,45.3167,55.2,58.66,46,100,9.35,KZ,1684188240
161,malpe,13.35,74.7167,83.5,83,77,5.46,IN,1684188240
162,manismata,-2.4667,111.0333,71.98,93,60,2.68,ID,1684188241
163,khandyga,62.6667,135.6,43.11,79,100,7.27,RU,1684188241
164,bamboo flat,11.7,92.7167,83.19,75,97,10.67,IN,1684188242
165,lerwick,60.1545,-1.1494,48.2,86,52,13.82,GB,1684188243
166,garoowe,8.4054,48.4845,81.73,63,91,10.94,SO,1684188244
167,mozhga,56.4447,52.2276,47.8,72,66,4.97,RU,1684188245
168,blackmans bay,-43.0167,147.3167,46.53,68,39,11.18,AU,1684188245
169,cuamba,-14.8031,36.5372,66.43,70,54,2.91,MZ,1684188246
170,talcahuano,-36.7167,-73.1167,56.88,94,75,8.05,CL,1684188246
171,kristiansund,63.1115,7.732,48.25,81,100,2.3,NO,1684188248
172,kangiwa,12.5521,3.8187,94.28,35,96,11.77,NG,1684188249
173,margate,51.3813,1.3862,50.7,73,5,5.01,GB,1684188249
174,merizo village,13.2658,144.6691,85.98,92,86,11.95,GU,1684188250
175,dudinka,69.4058,86.1778,20.95,90,98,9.46,RU,1684188251
176,cole harbour,44.6724,-63.4751,67.39,38,75,13.8,CA,1684188194
177,saldanha,-33.0117,17.9442,53.65,86,3,11.12,ZA,1684188252
178,al qadarif,14.0349,35.3834,92.93,9,0,11.45,SD,1684188253
179,asan-maina village,13.4722,144.7165,86.13,85,20,9.22,GU,1684188253
180,san andres,12.5847,-81.7006,87.82,70,40,12.66,CO,1684188254
181,fort bragg,35.139,-79.006,81.95,32,75,5.75,US,1684188255
182,karangampel,-6.4622,108.4519,78.13,74,39,7.29,ID,1684188255
183,tirlyanskiy,54.2109,58.5806,46.58,86,61,2.62,RU,1684188256
184,tazacorte,28.629,-17.9293,68.97,78,100,17.27,ES,1684188257
185,romita,20.8667,-101.5167,84.74,17,75,9.22,MX,1684188257
186,ramganj mandi,24.65,75.9333,89.42,34,13,18.9,IN,1684188258
187,ribeira brava,32.65,-17.0667,69.01,79,52,5.84,PT,1684188259
188,mirpur mathelo,28.0227,69.5489,92.25,26,82,16.53,PK,1684188259
189,byron bay,-28.65,153.6167,61.72,97,100,20.69,AU,1684188118
190,santiago de cao,-7.9589,-79.2392,75.33,78,21,9.22,PE,1684188260
191,nkove,-7.95,30.85,73.69,70,33,3.8,TZ,1684188261
192,hadibu,12.65,54.0333,85.42,79,57,9.19,YE,1684188262
193,cururupu,-1.8283,-44.8683,76.82,95,55,3.29,BR,1684188263
194,little falls,40.869,-74.2082,76.24,28,0,19.57,US,1684188264
195,riyadh,24.6877,46.7219,82.54,19,94,10.0,SA,1684188004
196,san jose del guaviare,2.5729,-72.6459,80.2,77,97,3.65,CO,1684188265
197,avarua,-21.2078,-159.775,78.85,69,97,8.05,CK,1684188266
198,kunming,25.0389,102.7183,57.13,94,100,11.18,CN,1684188007
199,crane,31.3974,-102.3501,81.19,37,97,7.67,US,1684188268
200,cumberland,35.0502,-78.8664,82.62,31,20,11.5,US,1684188269
201,iwanai,42.9744,140.5089,57.36,88,75,6.91,JP,1684188270
202,la passe,45.5549,-0.8967,57.43,94,100,13.51,FR,1684188270
203,tromso,69.6496,18.957,46.42,81,75,4.61,NO,1684188227
204,aykhal,66.0,111.5,26.15,91,74,3.22,RU,1684188271
205,inari,68.906,27.0288,53.8,70,30,7.14,FI,1684188272
206,natal,-5.795,-35.2094,82.62,78,20,9.22,BR,1684188254
207,dakhla,23.6848,-15.958,69.82,78,75,14.97,EH,1684188274
208,hermanus,-34.4187,19.2345,55.78,83,19,7.09,ZA,1684188275
209,tolanaro,-25.0319,46.9987,69.87,94,0,4.61,MG,1684188275
210,susuman,62.7833,148.1667,38.08,64,96,6.62,RU,1684188276
211,general villegas,-35.0328,-63.0125,72.46,37,1,10.83,AR,1684188276
212,lorengau,-2.0226,147.2712,83.19,82,78,8.55,PG,1684188277
213,tamanrasset,22.785,5.5228,76.91,11,37,4.61,DZ,1684188278
214,dongkan,33.9997,119.8308,67.42,59,28,7.63,CN,1684188278
215,vernon,50.2581,-119.2691,88.61,25,0,2.3,CA,1684188065
216,moog,8.6011,124.4658,79.77,77,55,3.31,PH,1684188279
217,tazovsky,67.4667,78.7,25.74,96,98,11.07,RU,1684188280
218,telerghma,36.1165,6.3543,51.21,60,3,6.87,DZ,1684188281
219,freetown,8.484,-13.2299,80.31,83,40,11.5,SL,1684188281
220,mil'kovo,55.6078,37.7956,52.2,57,88,3.44,RU,1684188282
221,harper,4.375,-7.7169,78.71,88,100,8.1,LR,1684188282
222,clifton,40.8584,-74.1638,77.95,27,0,19.57,US,1684188283
223,nurabad,34.0734,47.9725,44.62,42,0,1.41,IR,1684188284
224,huarmey,-10.0681,-78.1522,74.97,73,22,9.66,PE,1684188284
225,likiep,9.8251,169.3107,81.77,79,100,17.67,MH,1684188285
226,nueva gerona,21.8833,-82.8,84.6,60,99,5.14,CU,1684188286
227,meybod,32.2501,54.0166,73.42,27,97,23.38,IR,1684188286
228,da nang,16.0678,108.2208,78.78,89,40,5.75,VN,1684188287
229,nova vicosa,-17.8919,-39.3719,74.97,84,20,5.55,BR,1684188288
230,trancas,-26.2314,-65.2803,69.91,60,0,6.91,AR,1684188289
231,mata-utu,-13.2816,-176.1745,82.69,66,94,4.36,WF,1684188290
232,kone,-21.0595,164.8658,75.16,69,74,6.26,NC,1684188290
233,bulanik,39.0929,42.2703,41.16,68,3,3.69,TR,1684188291
234,novodvinsk,64.4165,40.8122,53.74,63,56,4.52,RU,1684188291
235,emerald,-23.5333,148.1667,66.45,70,38,6.98,AU,1684188292
236,remire-montjoly,4.9167,-52.2667,80.64,89,75,6.91,GF,1684188172
237,ghadamis,30.1337,9.5007,65.43,33,0,5.77,LY,1684188293
238,puerto baquerizo moreno,-0.9,-89.6,81.59,74,75,9.22,EC,1684188294
239,taksimo,56.3444,114.8794,33.01,46,5,3.76,RU,1684188294
240,yavatmal,20.4,78.1333,88.99,32,4,17.54,IN,1684188295
241,katsuura,35.1333,140.3,62.71,72,1,10.92,JP,1684188295
242,burkardroth,50.2667,10.0,50.25,96,61,4.36,DE,1684188296
243,arifwala,30.294,73.0735,87.19,27,92,5.57,PK,1684188296
244,cochin,9.9399,76.2602,80.58,81,52,4.63,IN,1684188297
245,pasighat,28.0667,95.3333,67.53,93,83,2.46,IN,1684188297
246,kuta,-8.7233,115.1723,77.0,83,40,5.01,ID,1684188298
247,pointe-noire,-4.7761,11.8635,80.67,89,20,6.91,CG,1684188298
248,sandnessjoen,66.0217,12.6316,46.92,82,100,1.99,NO,1684188299
249,posto fiscal rolim de moura,-13.0833,-62.2667,79.43,69,48,3.15,BR,1684188300
250,celestun,20.8667,-90.4,83.66,65,14,15.14,MX,1684188301
251,nova sintra,14.8667,-24.7167,68.32,80,10,20.24,CV,1684188301
252,taulaga,-11.0553,-171.0883,83.52,73,5,8.84,AS,1684188302
253,eyl,7.9803,49.8164,81.7,78,75,20.02,SO,1684188302
254,fort st. john,56.2499,-120.8529,80.49,32,75,6.91,CA,1684188050
255,maumere,-8.6199,122.2111,74.32,79,6,6.13,ID,1684188303
256,al jubayl,27.0112,49.6583,82.94,38,61,9.66,SA,1684188241
257,kailua-kona,19.6406,-155.9956,83.28,74,40,13.8,US,1684188304
258,hithadhoo,-0.6,73.0833,83.14,80,98,17.58,MV,1684188305
259,shakawe,-18.3667,21.85,67.59,33,88,5.1,BW,1684188306
260,holmestrand,59.4876,10.3176,56.68,42,99,0.58,NO,1684188306
261,nanpiao,41.0982,120.7479,60.1,82,5,6.24,CN,1684188307
262,pruzhany,52.5567,24.4644,54.72,96,100,13.51,BY,1684188307
263,cockburn town,21.4612,-71.1419,80.37,80,100,10.31,TC,1684188032
264,tabas,33.5959,56.9244,76.33,18,0,9.24,IR,1684188308
265,cassilandia,-19.1133,-51.7342,62.91,68,0,3.91,BR,1684188309
266,coquimbo,-29.9533,-71.3436,64.13,67,0,8.05,CL,1684188310
267,porto santo stefano,42.4338,11.1237,60.73,64,100,19.93,IT,1684188310
268,shangqiu,34.45,115.65,72.9,58,100,10.78,CN,1684188027
269,tiszakecske,46.9326,20.1035,58.1,97,100,3.33,HU,1684188311
270,east london,-33.0153,27.9116,58.53,81,0,4.52,ZA,1684188312
271,khorixas,-20.3667,14.9667,64.85,42,49,4.85,NA,1684188313
272,haiku-pauwela,20.9219,-156.3051,78.82,50,40,19.57,US,1684188313
273,linares,-35.85,-71.6,60.1,73,7,4.52,CL,1684188314
274,belle fourche,44.6714,-103.8522,71.11,57,86,10.09,US,1684188314
275,alta sierra,35.7291,-118.5495,77.79,15,73,8.39,US,1684188315
276,puerto lopez,4.0845,-72.956,79.66,86,100,1.48,CO,1684188316
277,mukalla,14.5425,49.1242,84.94,76,0,4.85,YE,1684188316
278,pawayan,28.0667,80.1,84.54,15,0,3.58,IN,1684188317
279,enewetak,11.3474,162.3373,81.72,78,79,17.11,MH,1684188317
280,selebi-phikwe,-21.979,27.8498,63.18,66,33,12.59,BW,1684188318
281,galle,6.0367,80.217,82.17,89,100,11.97,LK,1684188319
282,waterloo,43.4668,-80.5164,67.87,26,0,11.5,CA,1684188299
283,morehead city,34.7229,-76.726,77.0,45,0,8.99,US,1684188320
284,tindouf,27.6711,-8.1474,82.85,11,1,6.91,DZ,1684188320
285,kudahuvadhoo,2.6708,72.8944,82.74,81,100,18.52,MV,1684188321
286,gaigeturi,33.4644,126.3183,57.25,88,0,1.14,KR,1684188322
287,port augusta,-32.5,137.7667,55.36,78,0,7.81,AU,1684188322
288,palmas,-10.2128,-48.3603,84.07,74,20,2.3,BR,1684188323
289,kingston,17.997,-76.7936,87.24,69,40,18.41,JM,1684187799
290,kidal,18.4411,1.4078,93.51,12,99,12.3,ML,1684188324
291,mount pearl,47.5166,-52.7813,48.54,63,20,23.02,CA,1684188324
292,iguape,-24.7081,-47.5553,66.4,75,98,3.96,BR,1684188325
293,ratnagiri,16.9833,73.3,81.95,81,27,7.38,IN,1684188325
294,ostersund,63.1792,14.6357,52.25,37,20,11.5,SE,1684188049
295,palikir - national government center,6.9248,158.1611,83.14,84,100,4.61,FM,1684188327
296,arroyo,41.6096,-4.7969,46.44,81,0,6.91,ES,1684188225
297,fyodorovka,53.6314,62.7078,54.07,63,24,5.03,KZ,1684188328
298,sao jose da coroa grande,-8.8978,-35.1478,78.22,82,72,6.6,BR,1684188328
299,hirara,24.8,125.2833,70.07,88,95,5.75,JP,1684188329
300,zaozersk,69.4005,32.4476,53.26,71,13,14.0,RU,1684188329
301,ocean city,39.2776,-74.5746,73.58,65,0,11.99,US,1684188252
302,luderitz,-26.6481,15.1594,62.33,47,0,3.8,NA,1684188330
303,pak phanang,8.3511,100.202,80.51,81,97,4.14,TH,1684188331
304,mari-turek,56.7895,49.6235,52.81,66,100,6.31,RU,1684188332
305,ancud,-41.8697,-73.8203,54.37,94,100,17.56,CL,1684188332
306,island harbour,50.724,-1.2758,51.98,74,8,4.0,GB,1684188333
307,holualoa,19.6228,-155.9522,79.56,74,40,13.8,US,1684188333
308,new norfolk,-42.7826,147.0587,47.71,66,55,4.99,AU,1684188316
309,sola,-13.8833,167.55,81.07,77,92,22.48,VU,1684188334
310,mazagao,-0.115,-51.2894,80.65,95,99,3.96,BR,1684188335
311,portland,45.5234,-122.6762,91.38,34,40,7.0,US,1684188334
312,belmonte,-15.8631,-38.8828,76.1,85,4,4.05,BR,1684188336
313,yuzhno-kurilsk,44.0306,145.8556,43.92,95,99,5.19,RU,1684188337
314,zavodoukovsk,56.5042,66.5515,46.96,59,77,4.97,RU,1684188337
315,bengkulu,-3.8004,102.2655,75.54,92,24,4.29,ID,1684188338
316,smithers,54.7804,-127.1743,80.92,32,0,9.22,CA,1684188040
317,labytnangi,66.6572,66.4183,26.76,84,21,11.68,RU,1684188339
318,ayutinskiy,47.77,40.14,55.02,66,61,4.9,RU,1684188340
319,villa gesell,-37.2639,-56.973,57.06,75,21,12.53,AR,1684188340
320,la ferte-mace,48.59,-0.358,41.5,92,63,5.68,FR,1684188178
321,cananea,30.95,-110.3,76.39,27,81,11.05,MX,1684188341
322,cabedelo,-6.9811,-34.8339,79.47,78,51,10.71,BR,1684188342
323,nadi,-17.8,177.4167,78.8,73,75,3.44,FJ,1684188342
324,suva,-18.1416,178.4415,74.68,88,75,3.44,FJ,1684188343
325,le soler,42.681,2.7934,64.49,60,0,26.46,FR,1684188343
326,kingscliff,-28.2667,153.5667,62.4,94,100,17.27,AU,1684188344
327,murzuq,25.9155,13.9184,75.76,13,0,19.51,LY,1684188345
328,port alfred,-33.5906,26.891,57.79,79,10,6.33,ZA,1684188345
329,rio grande,-32.035,-52.0986,66.31,81,74,8.88,BR,1684188346
330,bahia honda,22.9036,-83.1592,80.92,73,100,9.75,CU,1684188346
331,puerto gaitan,4.3133,-72.0816,82.47,75,100,7.7,CO,1684188347
332,daru,-9.0763,143.2092,75.31,96,100,5.21,PG,1684188348
333,nar'yan-mar,67.6713,53.087,32.2,98,74,4.38,RU,1684188348
334,mikuni,36.2171,136.1519,55.31,77,21,4.74,JP,1684188349
335,kavaratti,10.5669,72.642,84.49,72,94,8.48,IN,1684188349
336,rabaul,-4.1967,152.1721,81.54,79,95,2.37,PG,1684188350
337,burutu,5.3509,5.5076,78.78,86,100,5.79,NG,1684188350
338,jiagedaqi,50.4167,124.1167,42.6,57,59,9.62,CN,1684188351
339,sihanoukville,10.6093,103.5296,78.75,94,40,2.3,KH,1684188352
340,beberibe,-4.1797,-38.1306,78.46,89,13,8.21,BR,1684188172
341,mili,6.0815,171.735,82.4,80,81,15.03,MH,1684188353
342,mawlamyinegyunn,16.3833,95.2667,77.63,90,96,4.14,MM,1684188353
343,abra pampa,-22.7205,-65.697,60.12,18,11,10.56,AR,1684188354
344,bereeda,11.8704,51.0579,84.92,79,36,7.45,SO,1684188354
345,arkadelphia,34.1209,-93.0538,86.18,62,40,6.91,US,1684188355
346,inongo,-1.95,18.2667,72.01,98,97,4.12,CD,1684188355
347,new plymouth,-39.0667,174.0833,58.55,100,9,3.6,NZ,1684188356
348,sievi,63.9,24.5,51.58,82,98,3.36,FI,1684188357
349,weinan,34.5036,109.5089,68.92,39,100,3.38,CN,1684188357
350,whangarei,-35.7317,174.3239,54.03,87,68,2.89,NZ,1684188358
351,chibougamau,49.9168,-74.3659,55.02,67,75,17.27,CA,1684188358
352,avsyunino,55.5652,39.1232,47.14,81,66,5.1,RU,1684188359
353,marang,5.2056,103.2059,78.71,88,75,3.33,MY,1684188359
354,nikolayevsk-on-amure,53.1406,140.73,50.31,82,98,9.4,RU,1684188360
355,i-n-salah,27.1935,2.4607,74.41,14,0,12.5,DZ,1684188361
356,antonio enes,-16.2325,39.9086,74.07,72,14,6.89,MZ,1684188361
357,ulladulla,-35.35,150.4667,53.74,73,0,5.57,AU,1684188149
358,acapulco de juarez,16.8634,-99.8901,89.42,62,20,10.36,MX,1684188252
359,timbuktu,16.7735,-3.0074,94.71,28,90,8.99,ML,1684188366
360,namdrik,5.5994,168.1028,81.79,79,98,13.96,MH,1684188368
361,bandon,51.7469,-8.7425,49.59,92,74,7.34,IE,1684188369
362,macapa,0.0389,-51.0664,82.38,89,40,5.75,BR,1684188124
363,moroni,-11.7022,43.2551,78.91,82,40,9.48,KM,1684188370
364,pugachev,52.0133,48.8025,51.06,86,71,7.47,RU,1684188370
365,hami,42.8,93.45,63.28,39,74,10.0,CN,1684188371
366,dwarka,22.2394,68.9678,82.4,88,11,16.53,IN,1684188372
367,saint-pierre,-21.3393,55.4781,74.88,73,0,6.91,RE,1684188373
368,qiongshan,20.0058,110.3542,75.18,100,40,2.24,CN,1684188373
369,kuusamo,65.9667,29.1833,48.24,76,0,2.3,FI,1684188374
370,soledade,-28.8183,-52.5103,54.32,85,2,0.96,BR,1684188376
371,castillos,-34.1667,-53.8333,56.17,83,59,5.5,UY,1684188376
372,tarhuna,32.435,13.6332,58.73,59,1,14.41,LY,1684188377
373,pyay,18.8167,95.2167,78.98,79,57,5.08,MM,1684188378
374,damghan,36.1683,54.348,54.07,56,94,18.05,IR,1684188379
375,la'ie,21.6477,-157.9253,82.36,61,28,10.02,US,1684188380
376,melilla,35.2937,-2.9383,73.78,38,0,12.66,ES,1684188381
377,parlakimidi,18.7667,84.0833,82.02,90,51,0.54,IN,1684188382
378,les avirons,-21.2418,55.3394,71.69,73,0,6.91,RE,1684188353
379,prince george,53.9166,-122.753,89.26,25,0,5.75,CA,1684188383
380,curup,-3.4667,102.5333,67.68,99,81,1.34,ID,1684188384
381,puerto quijarro,-17.7833,-57.7667,75.78,50,0,3.71,BO,1684188385
382,geraldton,-28.7667,114.6,54.01,66,3,11.5,AU,1684188386
383,nemuro,43.3236,145.575,43.41,96,100,6.69,JP,1684188386
384,kerikeri,-35.2268,173.9474,59.92,94,24,3.24,NZ,1684188387
385,karkira,36.9292,6.5856,57.85,81,3,12.84,DZ,1684188388
386,grand baie,-20.0182,57.5802,74.44,78,3,1.99,MU,1684188111
387,albertina,-22.2008,-46.6158,53.64,80,34,0.85,BR,1684188389
388,laguna,38.421,-121.4238,91.35,38,0,5.75,US,1684188391
389,cill airne,52.05,-9.5167,42.85,92,62,2.42,IE,1684188392
390,tambura,5.6,27.4667,77.05,59,7,4.43,SS,1684188393
391,midvagur,62.0511,-7.1939,47.23,81,75,26.46,FO,1684188394
392,thinadhoo,0.5333,72.9333,82.78,82,100,16.24,MV,1684188228
393,pak chong,14.708,101.4161,75.29,84,1,4.47,TH,1684188395
394,shache,38.4167,77.2406,70.72,25,1,7.83,CN,1684188396
395,kropachevo,55.0112,57.9896,46.09,84,6,1.25,RU,1684188396
396,bikenibeu village,1.3673,173.1241,84.16,79,75,6.91,KI,1684188397
397,lubao,14.9167,120.55,82.11,82,100,0.25,PH,1684188398
398,brookings,44.3114,-96.7984,71.26,43,0,4.61,US,1684188170
399,grande prairie,55.1667,-118.8027,78.98,29,100,4.61,CA,1684188356
400,pilibangan,29.45,74.0833,89.26,24,100,9.73,IN,1684188400
401,roma,43.2128,-75.4557,68.72,22,0,20.71,US,1684188365
402,keetmanshoop,-26.5833,18.1333,56.8,45,0,11.14,NA,1684188401
403,shiyan,32.6475,110.7781,70.48,69,100,2.82,CN,1684188401
404,paciran,-6.8767,112.3761,75.96,81,42,4.65,ID,1684188402
405,zhigalovo,54.8097,105.1578,37.33,56,95,4.14,RU,1684188402
406,kisangani,0.5167,25.2,73.11,91,44,3.42,CD,1684188403
407,port blair,11.6667,92.75,83.26,74,97,10.78,IN,1684188404
408,ad dabbah,18.05,30.95,84.02,9,1,9.31,SD,1684188404
409,zhuangyuan,37.2975,120.8256,68.95,59,0,6.58,CN,1684188405
410,sarakhs,36.5449,61.1577,66.72,52,2,9.84,IR,1684188405
411,kharp,66.8014,65.8081,27.84,86,60,8.95,RU,1684188406
412,shiguai,40.7058,110.2856,61.66,46,7,2.13,CN,1684188406
413,arenapolis,-14.4503,-56.8461,72.84,69,1,3.13,BR,1684188407
414,chake chake,-5.2459,39.7666,77.65,85,7,8.32,TZ,1684188408
415,arkhangel'sk,64.5401,40.5433,54.03,63,56,4.36,RU,1684188249
416,nantucket,41.2835,-70.0995,64.45,65,0,20.71,US,1684188409
417,masterton,-40.9597,175.6575,48.88,91,88,4.83,NZ,1684188409
418,fuglafjordur,62.244,-6.814,46.87,82,76,24.63,FO,1684188410
419,joshimath,30.5667,79.5667,53.69,46,0,8.5,IN,1684188411
420,tralee,52.2704,-9.7026,44.62,88,34,3.42,IE,1684188411
421,bubaque,11.2833,-15.8333,79.9,72,100,17.52,GW,1684188412
422,barcelos,41.5388,-8.6151,65.84,68,100,6.51,PT,1684188413
423,monrovia,6.3005,-10.7969,78.57,93,100,8.66,LR,1684188413
424,lagunas,-5.2269,-75.6753,85.14,69,82,3.11,PE,1684188414
425,fontanelas,38.8472,-9.4372,60.58,82,53,22.15,PT,1684188414
426,cincinnati,39.162,-84.4569,75.78,58,0,4.61,US,1684188279
427,howrah,22.5892,88.3103,77.0,83,40,3.44,IN,1684188415
428,petauke,-14.2426,31.3253,62.31,61,9,6.02,ZM,1684188416
429,georgiyevka,43.0369,74.7114,57.24,62,0,6.71,KZ,1684188417
430,lethem,3.3803,-59.7968,83.17,75,98,4.9,GY,1684188417
431,brisas de zicatela,15.8369,-97.0419,90.12,62,0,8.05,MX,1684188418
432,kismayo,-0.3582,42.5454,80.73,77,83,13.69,SO,1684188418
433,dunedin,-45.8742,170.5036,51.8,65,0,5.01,NZ,1684188177
434,ust'-ilimsk,58.0006,102.6619,27.64,70,96,3.02,RU,1684188419
435,luoyang,34.6836,112.4536,72.05,66,100,1.34,CN,1684188420
436,isangel,-19.55,169.2667,77.68,72,94,16.78,VU,1684188421
437,diplo,24.4667,69.584,81.82,84,14,14.83,PK,1684188421
438,trinity beach,-16.7888,145.6968,77.02,88,75,5.75,AU,1684188422
439,mabai,23.0128,104.4508,59.67,98,91,4.81,CN,1684188423
440,akrehamn,59.2667,5.1833,46.65,87,75,16.11,NO,1684188424
441,mar del plata,-38.0023,-57.5575,60.1,77,0,8.99,AR,1684188425
442,filadelfia,39.9523,-75.1638,75.79,33,20,12.66,US,1684188419
443,vorgashor,67.5833,63.95,25.05,93,98,13.78,RU,1684188427
444,verdal,63.7933,11.4817,50.04,80,100,2.75,NO,1684188428
445,lukolela,-1.0605,17.1821,73.6,93,99,3.13,CD,1684188429
446,segou,13.4317,-6.2157,92.14,31,98,4.76,ML,1684188429
447,padua,45.4152,11.8818,63.1,80,99,1.99,IT,1684188281
448,hailar,49.2,119.7,40.69,39,100,11.56,CN,1684188431
449,honiara,-9.4333,159.95,82.15,81,100,1.03,SB,1684188432
450,chinde,26.8418,88.0763,60.12,60,7,5.3,NP,1684188433
451,jatai,-17.8814,-51.7144,64.65,58,0,5.84,BR,1684188433
452,davyd-haradok,52.0566,27.2161,61.36,57,100,10.78,BY,1684188434
453,chongwe,-15.3292,28.682,61.5,56,3,2.46,ZM,1684188435
454,matoury,4.8483,-52.3317,80.56,83,40,4.61,GF,1684188436
455,almenara,-16.1836,-40.6944,75.99,71,74,2.26,BR,1684188436
456,nabire,-3.3667,135.4833,77.49,88,93,4.47,ID,1684188437
457,vila franca do campo,37.7167,-25.4333,64.81,79,31,3.4,PT,1684188438
458,polyarnyy,69.1989,33.4478,47.61,77,43,12.44,RU,1684188438
459,ponta delgada,37.7333,-25.6667,65.12,72,20,5.75,PT,1684188439
460,mount gambier,-37.8333,140.7667,51.53,74,91,8.32,AU,1684188440
461,bac lieu,9.285,105.7244,82.87,78,7,6.64,VN,1684188441
462,sakaiminato,35.55,133.2333,57.13,65,26,6.62,JP,1684188442
463,tyre,33.2733,35.1939,75.2,76,0,8.72,LB,1684188442
464,puerto maldonado,-12.6,-69.1833,77.4,83,0,1.14,PE,1684188444
465,argostolion,38.1811,20.489,73.4,50,100,23.15,GR,1684188445
466,monett,36.929,-93.9277,69.17,98,100,3.38,US,1684188445
467,fortaleza,-3.7227,-38.5247,83.21,78,0,8.05,BR,1684188242
468,wang saphung,17.301,101.7685,79.75,75,18,2.98,TH,1684188447
469,ghat,24.9647,10.1728,73.69,15,0,12.68,LY,1684188448
470,poronaysk,49.2167,143.1167,43.54,94,96,17.22,RU,1684188449
471,coronel dorrego,-38.7187,-61.2873,65.77,56,82,9.89,AR,1684188450
472,gornozavodsk,58.3758,58.3211,41.59,70,47,2.51,RU,1684188452
473,chernyshevskiy,63.0128,112.4714,34.07,74,100,2.1,RU,1684188453
474,nha trang,12.25,109.1833,78.8,86,66,4.85,VN,1684188454
475,vilyuysk,63.7553,121.6247,39.2,82,100,9.55,RU,1684188455
476,san lorenzo,-25.3333,-57.5333,74.59,50,0,5.99,PY,1684188190
477,stephenville,32.2207,-98.2023,82.87,88,75,4.61,US,1684188244
478,colon,9.3592,-79.9014,81.28,83,95,3.78,PA,1684188457
479,nieuw amsterdam,5.8833,-55.0833,81.14,89,40,4.61,SR,1684188457
480,guerrero negro,27.9769,-114.0611,70.97,53,11,15.57,MX,1684188457
481,malvan,16.0667,73.4667,83.53,76,95,8.97,IN,1684188458
482,al khums,32.6486,14.2619,64.58,64,1,18.97,LY,1684188459
483,mariental,-24.6333,17.9667,59.79,38,48,11.54,NA,1684188459
484,goseong,34.9763,128.3236,57.24,86,0,1.74,KR,1684188460
485,gavle,60.6745,17.1417,54.37,79,90,1.01,SE,1684188460
486,canutama,-6.5339,-64.3831,78.51,89,97,0.02,BR,1684188466
487,hamilton,39.1834,-84.5333,76.08,59,93,1.99,US,1684187985
488,ain sukhna,29.6002,32.3167,73.35,50,26,5.57,EG,1684188467
489,tamuin,21.9833,-98.75,91.22,42,0,4.81,MX,1684188468
490,mossel bay,-34.1831,22.146,58.53,71,22,1.92,ZA,1684188469
491,ust-tsilma,65.441,52.1498,43.18,98,82,2.1,RU,1684188469
492,yakeshi,49.2833,120.7333,40.46,25,100,9.17,CN,1684188470
493,langepas,61.2544,75.2124,33.96,81,29,9.95,RU,1684188470
494,lencois paulista,-22.5986,-48.8003,64.38,65,36,4.34,BR,1684188471
495,luanda,-8.8368,13.2343,78.8,83,75,8.05,AO,1684188224
496,northam,51.0333,-4.2167,51.66,74,2,9.22,GB,1684188472
497,ixtapa,20.7,-105.2,84.22,65,20,16.11,MX,1684188472
498,tezu,27.9167,96.1667,66.74,93,99,3.06,IN,1684188473
499,bridgewater,44.3835,-64.5155,64.02,41,81,21.85,CA,1684188177
500,bardai,11.65,7.2333,86.76,39,100,9.17,NG,1684188474
501,aljezur,37.3191,-8.8033,57.34,93,9,15.01,PT,1684188475
502,shelton,41.3165,-73.0932,76.51,36,0,16.11,US,1684188226
503,leava,-14.3,-178.1667,81.14,79,100,9.64,WF,1684188476
504,cadale,2.7603,46.3222,80.74,77,84,16.31,SO,1684188477
505,malakal,9.5334,31.6605,94.03,32,66,4.03,SS,1684188478
506,santarem,-2.4431,-54.7083,80.73,89,40,3.44,BR,1684188478
507,hammerfest,70.6634,23.6821,48.65,66,0,0.0,NO,1684188479
508,carolina beach,34.0352,-77.8936,78.1,64,85,10.74,US,1684188479
509,benxi,41.2886,123.765,66.52,80,63,10.22,CN,1684188480
510,laojunmiao,39.8333,97.7333,52.07,48,100,3.62,CN,1684188480
511,reidsville,36.3549,-79.6645,71.76,82,100,0.0,US,1684188481
512,tyuratam,45.6507,63.3156,57.47,88,100,10.98,KZ,1684188482
513,mersa matruh,31.3525,27.2453,67.53,79,88,9.62,EG,1684188483
514,gao,16.6362,1.637,95.45,20,92,8.43,ML,1684188483
515,dadukou,26.5479,101.7054,60.93,91,89,0.45,CN,1684188484
516,suntar,62.1444,117.6319,38.05,68,75,3.15,RU,1684188485
517,karratha,-20.7377,116.8463,67.33,34,19,8.61,AU,1684188487
518,malango,-2.9627,119.9001,64.85,96,95,2.75,ID,1684188488
519,port isabel,26.0734,-97.2086,82.44,76,75,13.0,US,1684188489
520,happy valley-goose bay,53.3168,-60.3315,43.11,87,100,10.36,CA,1684188490
521,narvik,68.4384,17.4272,46.38,94,97,1.52,NO,1684188491
522,karabar,-35.3753,149.2308,44.74,97,40,0.0,AU,1684188492
523,ulsteinvik,62.3432,5.8487,49.75,83,90,7.0,NO,1684188493
524,callao,-12.0667,-77.15,78.71,69,100,11.5,PE,1684188494
525,broken hill,-31.95,141.4333,54.34,55,0,6.67,AU,1684188495
526,antalaha,-14.9003,50.2788,71.65,88,24,5.68,MG,1684188495
527,hosdurga,13.7981,76.2861,75.72,73,69,7.05,IN,1684188496
528,itoman,26.1247,127.6694,72.37,83,75,6.91,JP,1684188497
529,cuito,-12.3833,16.9333,61.09,66,88,4.36,AO,1684188498
530,altinekin,38.3078,32.8686,59.56,59,16,1.43,TR,1684188499
531,vershino-darasunskiy,52.35,115.5167,31.26,29,10,4.23,RU,1684188499
532,solnechnyy,50.7214,136.6319,52.09,41,48,9.95,RU,1684188500
533,vila do maio,15.1333,-23.2167,74.19,81,79,12.73,CV,1684188501
534,lobujya,27.95,86.8167,8.83,86,71,8.16,NP,1684188502
535,fukuecho,32.6881,128.8419,66.45,87,0,8.88,JP,1684188503
536,lazaro cardenas,17.9583,-102.2,86.7,53,0,10.54,MX,1684188502
537,blythe,33.6103,-114.5964,102.04,8,35,9.91,US,1684188504
538,kiunga,-6.1219,141.2906,72.88,99,100,2.33,PG,1684188504
539,eket,4.6412,7.9209,79.18,89,64,6.96,NG,1684188505
540,taquaritinga do norte,-7.9031,-36.0442,68.67,83,48,8.75,BR,1684188506
541,menongue,-14.6585,17.691,64.04,48,50,0.81,AO,1684188507
542,praia da vitoria,38.7333,-27.0667,64.76,90,62,3.0,PT,1684188480
543,skovorodino,53.9833,123.9167,37.99,77,91,7.31,RU,1684188508
544,gizo,-8.103,156.8419,83.37,74,95,0.45,SB,1684188509
545,stornoway,58.2093,-6.3865,49.96,86,75,14.97,GB,1684188510
546,kapa'a,22.0752,-159.319,80.58,63,100,13.8,US,1684188512
547,komsomol'skiy,43.9783,46.6985,56.03,81,83,12.15,RU,1684188513
