City_ID,City,Lat,Lng,Max Temp,Humidity,Cloudiness,Wind Speed,Country,Date
0,anadyr,64.75,177.4833,32.5,86,75,11.18,RU,1683971149
1,tadine,-21.55,167.8833,74.34,70,100,20.58,NC,1683971149
2,vershino-darasunskiy,52.35,115.5167,44.83,78,100,6.11,RU,1683971150
3,margate,51.3813,1.3862,56.89,82,14,13.0,GB,1683971150
4,fortuna,40.5982,-124.1573,52.93,93,100,0.0,US,1683971150
5,cabo san lucas,22.8909,-109.9124,71.06,59,1,1.01,MX,1683970878
6,bilibino,68.0546,166.4372,10.17,90,94,8.34,RU,1683971151
7,adamstown,-25.066,-130.1015,72.41,61,98,16.69,PN,1683971152
8,grand gaube,-20.0064,57.6608,84.6,67,14,5.01,MU,1683971152
9,qaqortoq,60.7167,-46.0333,31.91,90,100,2.66,GL,1683971153
10,vilyuchinsk,52.9306,158.4028,48.47,80,19,7.78,RU,1683971153
11,waitangi,-43.9535,-176.5597,52.65,61,82,14.05,NZ,1683971154
12,ushuaia,-54.8,-68.3,37.06,65,0,2.3,AR,1683970990
13,edinburgh of the seven seas,-37.0676,-12.3116,65.03,94,100,26.11,SH,1683971155
14,fort bragg,35.139,-79.006,64.81,89,0,4.61,US,1683971155
15,invercargill,-46.4,168.35,47.01,95,76,3.0,NZ,1683971156
16,talnakh,69.4865,88.3972,15.21,82,100,10.11,RU,1683971156
17,kununurra,-15.7667,128.7333,78.78,31,18,4.61,AU,1683971156
18,tiksi,71.6872,128.8694,13.35,86,79,5.35,RU,1683971157
19,ribeira grande,38.5167,-28.7,65.77,82,75,2.3,PT,1683971157
20,port-aux-francais,-49.35,70.2167,39.13,65,96,14.81,TF,1683971158
21,jamestown,42.097,-79.2353,58.64,75,0,5.75,US,1683971127
22,abeche,13.8292,20.8324,97.97,22,100,3.87,TD,1683971159
23,vernon,50.2581,-119.2691,59.29,56,7,5.75,CA,1683970519
24,mirnyy,62.5353,113.9611,43.27,65,100,6.58,RU,1683971160
25,bamboo flat,11.7,92.7167,85.86,79,100,21.97,IN,1683971160
26,alaghsas,17.0187,8.0168,100.29,17,85,13.8,NE,1683971160
27,zholymbet,51.7433,71.7122,67.84,51,99,10.63,KZ,1683971161
28,thinadhoo,0.5333,72.9333,82.9,78,88,15.68,MV,1683971161
29,novaya igirma,57.1334,103.9112,40.91,48,100,11.52,RU,1683971162
30,luderitz,-26.6481,15.1594,68.72,42,78,25.3,NA,1683971162
31,blackmans bay,-43.0167,147.3167,46.53,87,16,1.97,AU,1683971163
32,isafjordur,66.0755,-23.124,46.44,61,40,9.22,IS,1683971163
33,lata,40.1629,-8.3327,67.08,32,1,8.55,PT,1683971164
34,colonia,50.9333,6.95,70.03,62,0,2.3,DE,1683971165
35,santo amaro da imperatriz,-27.6881,-48.7786,60.8,93,16,3.31,BR,1683970982
36,margaret river,-33.95,115.0667,58.5,71,84,10.13,AU,1683971166
37,mili,6.0815,171.735,83.12,82,98,17.52,MH,1683971166
38,sitka,57.0531,-135.33,48.09,87,100,4.61,US,1683971167
39,olonkinbyen,70.9221,-8.7187,34.14,89,41,20.15,SJ,1683971167
40,rongelap,11.1635,166.8941,81.64,82,29,17.54,MH,1683971168
41,kutum,14.2,24.6667,95.16,11,11,13.4,SD,1683971169
42,bubaque,11.2833,-15.8333,78.48,74,100,6.8,GW,1683971170
43,petropavlovsk-kamchatsky,53.0452,158.6483,46.99,46,40,11.18,RU,1683971170
44,saipan,15.1355,145.701,83.1,100,40,0.0,MP,1683971171
45,grytviken,-54.2811,-36.5092,30.94,83,100,9.62,GS,1683971171
46,shaowu,27.3409,117.4831,73.56,72,100,3.4,CN,1683971172
47,thompson,55.7435,-97.8558,32.16,93,40,0.0,CA,1683971172
48,hawaiian paradise park,19.5933,-154.9731,71.11,86,100,4.61,US,1683971173
49,hamilton,39.1834,-84.5333,68.09,96,100,6.91,US,1683971174
50,bethel,41.3712,-73.414,66.15,73,100,0.0,US,1683971174
51,alice springs,-23.7,133.8833,60.35,31,0,8.05,AU,1683971165
52,nar'yan-mar,67.6713,53.087,32.41,88,99,14.36,RU,1683971175
53,west island,-12.1568,96.8225,78.78,94,40,13.8,CC,1683971176
54,pontianak,-0.0333,109.3333,85.98,79,40,9.22,ID,1683971176
55,iqaluit,63.7506,-68.5145,17.33,86,100,24.16,CA,1683971177
56,tchibanga,-2.85,11.0333,86.76,68,88,1.01,GA,1683971177
57,mikhaylovka,50.06,43.2379,71.78,40,7,7.27,RU,1683971178
58,kodinar,20.7903,70.7031,94.26,44,0,21.5,IN,1683971179
59,klyuchi,52.2667,79.1667,65.03,21,42,10.69,RU,1683971179
60,princeville,45.7668,-61.2985,50.41,97,86,6.91,CA,1683971179
61,midvagur,62.0511,-7.1939,49.03,100,100,8.05,FO,1683971180
62,puerto armuelles,8.2833,-82.8667,78.08,88,41,4.16,PA,1683971180
63,port mathurin,-19.6833,63.4167,78.57,72,12,16.93,MU,1683971181
64,puerto ayora,-0.7393,-90.3518,78.55,98,50,8.01,EC,1683971181
65,oroqen zizhiqi,50.5667,123.7167,60.93,27,53,2.53,CN,1683971182
66,bonthe,7.5264,-12.505,87.78,66,78,1.77,SL,1683971182
67,claveria,18.6074,121.0832,80.22,83,92,6.11,PH,1683971183
68,chonchi,-42.6128,-73.8092,56.41,94,100,5.95,CL,1683971184
69,puerto baquerizo moreno,-0.9,-89.6,77.72,88,36,10.47,EC,1683970945
70,okhotsk,59.3833,143.3,32.2,94,100,8.37,RU,1683971185
71,tarauaca,-8.1614,-70.7656,70.63,99,96,2.71,BR,1683971185
72,kristiansund,63.1115,7.732,53.65,81,75,4.61,NO,1683971185
73,el nido,11.1858,119.3956,84.79,75,95,6.85,PH,1683971186
74,port elizabeth,-33.918,25.5701,62.89,81,75,11.5,ZA,1683971187
75,piacabucu,-10.4056,-36.4344,77.2,79,91,6.6,BR,1683971187
76,mahdia,35.5047,11.0622,73.35,62,100,6.53,TN,1683971188
77,ar rutbah,33.0381,40.2848,81.34,19,0,15.14,IQ,1683971188
78,vilyuysk,63.7553,121.6247,47.44,51,100,3.42,RU,1683971189
79,puerto natales,-51.7236,-72.4875,36.45,92,100,2.62,CL,1683971189
80,dongkan,33.9997,119.8308,76.26,56,31,6.85,CN,1683971190
81,nikolayevsk-on-amure,53.1406,140.73,59.85,51,43,6.51,RU,1683971190
82,scituate,42.1959,-70.7259,64.06,79,20,5.75,US,1683971191
83,wailua homesteads,22.0669,-159.378,70.23,89,100,5.75,US,1683971192
84,albany,42.6001,-73.9662,61.21,79,100,1.99,US,1683971192
85,hasaki,35.7333,140.8333,62.22,63,99,15.86,JP,1683971193
86,zouerate,22.7187,-12.4521,88.45,17,24,11.18,MR,1683971193
87,bredasdorp,-34.5322,20.0403,61.29,50,73,17.29,ZA,1683971193
88,tolanaro,-25.0319,46.9987,80.67,61,20,11.5,MG,1683971194
89,jayapura,-2.5333,140.7,81.79,85,19,2.8,ID,1683971195
90,punta arenas,-53.15,-70.9167,37.51,81,75,9.22,CL,1683971195
91,dabhol,17.6,73.1667,91.11,50,1,10.54,IN,1683971196
92,castillos,-34.1667,-53.8333,51.35,85,100,6.98,UY,1683971196
93,alesund,62.4723,6.1549,57.76,84,75,2.3,NO,1683971197
94,stanley,54.868,-1.6985,51.82,76,40,1.14,GB,1683971197
95,hadyach,50.3711,33.991,67.19,45,3,5.21,UA,1683971198
96,cedral,23.8,-100.7333,65.35,78,2,7.92,MX,1683971199
97,kisangani,0.5167,25.2,93.85,45,97,1.74,CD,1683971200
98,kapuskasing,49.4169,-82.4331,37.4,81,20,6.91,CA,1683971200
99,san patricio,28.017,-97.5169,79.84,88,100,15.73,US,1683971201
100,porto velho,-8.7619,-63.9039,75.25,94,40,2.3,BR,1683971201
101,port lincoln,-34.7333,135.8667,60.28,75,2,9.31,AU,1683971202
102,kerema,-7.9631,145.7785,80.15,88,72,7.18,PG,1683971202
103,agacoren,38.8748,33.9167,60.19,61,78,12.5,TR,1683971203
104,new norfolk,-42.7826,147.0587,47.71,68,14,1.99,AU,1683971204
105,aioun,16.6614,-9.6149,101.77,7,71,7.87,MR,1683971204
106,ta`u,-14.2336,-169.5144,81.64,76,1,7.23,AS,1683971205
107,nova vicosa,-17.8919,-39.3719,72.9,90,100,7.0,BR,1683971205
108,calca,-13.3333,-71.95,47.37,86,97,1.57,PE,1683971206
109,georgetown,5.4112,100.3354,94.95,63,40,9.22,MY,1683970973
110,sinabang,2.4803,96.3801,85.86,70,78,7.47,ID,1683971207
111,luena,-11.7833,19.9167,79.09,31,66,4.12,AO,1683971207
112,tazovsky,67.4667,78.7,22.21,82,80,17.0,RU,1683971208
113,miches,18.9836,-69.0476,75.09,90,74,7.11,DO,1683971208
114,trincomalee,8.5711,81.2335,89.69,63,72,21.68,LK,1683971209
115,acarau,-2.8856,-40.12,76.86,92,67,8.59,BR,1683971209
116,bikenibeu village,1.3673,173.1241,84.16,84,20,8.05,KI,1683971210
117,papatowai,-46.5619,169.4708,53.62,78,99,5.99,NZ,1683971210
118,wainwright,52.839,-110.8572,52.18,79,1,7.81,CA,1683971211
119,sinop,41.7711,34.8709,58.37,54,66,10.71,TR,1683971212
120,trondheim,63.4305,10.3951,56.98,70,40,0.69,NO,1683971212
121,benjamin constant,-4.3831,-70.0311,75.33,99,70,2.15,BR,1683971213
122,ust-nera,64.5667,143.2,31.46,94,100,8.9,RU,1683971213
123,hauterive,46.0901,3.4459,56.16,88,100,6.38,FR,1683971214
124,chiang klang,19.2938,100.8617,81.64,88,96,1.83,TH,1683971214
125,alofi,-19.0595,-169.9187,73.29,94,26,1.14,NU,1683971215
126,rabo de peixe,37.8,-25.5833,63.91,82,20,10.36,PT,1683971215
127,nova sintra,14.8667,-24.7167,67.68,82,5,16.51,CV,1683971216
128,ilulissat,69.2167,-51.1,28.42,86,100,2.3,GL,1683971217
129,la ronge,55.1001,-105.2842,43.05,56,75,5.75,CA,1683971217
130,tangalle,6.024,80.7911,89.76,75,100,16.53,LK,1683971218
131,utrik,11.2278,169.8474,81.14,83,48,17.02,MH,1683971219
132,lepsy,46.235,78.9456,85.98,22,93,15.57,KZ,1683971219
133,kailua-kona,19.6406,-155.9956,75.16,96,20,12.66,US,1683971220
134,afaahiti,-17.75,-149.2833,75.07,80,58,13.53,PF,1683971220
135,domat,46.8348,9.4508,58.59,61,100,0.94,CH,1683971221
136,antsiranana,-12.2787,49.2917,90.36,48,40,13.8,MG,1683971221
137,longyearbyen,78.2186,15.6401,37.24,81,75,2.3,SJ,1683971222
138,ciudad lazaro cardenas,17.9583,-102.2,78.44,75,99,3.24,MX,1683971222
139,motygino,58.1831,94.7592,35.02,52,100,11.65,RU,1683971223
140,mount isa,-20.7333,139.5,67.77,49,51,3.44,AU,1683971224
141,axim,4.8699,-2.2405,86.97,66,34,5.06,GH,1683971224
142,gigant,46.5066,41.3419,64.63,50,100,11.34,RU,1683971225
143,uturoa,-16.7333,-151.4333,80.04,77,14,10.09,PF,1683971225
144,radomsko,51.0671,19.4448,68.52,46,3,16.26,PL,1683971226
145,oke mesi,7.8167,4.9167,90.19,50,93,2.46,NG,1683971226
146,lihue,21.9789,-159.3672,70.84,89,100,5.75,US,1683971227
147,kodiak,57.79,-152.4072,44.11,87,100,12.66,US,1683971228
148,socorro,31.6546,-106.3033,70.81,35,40,5.75,US,1683971229
149,harper,4.375,-7.7169,83.71,78,100,4.21,LR,1683971229
150,abepura,-2.6333,140.5833,81.41,78,20,2.3,ID,1683971230
151,aleksandrovskoye,44.7142,43.0008,53.78,80,100,11.34,RU,1683971230
152,yellowknife,62.456,-114.3525,46.92,66,75,8.05,CA,1683971231
153,nabire,-3.3667,135.4833,80.47,85,100,0.98,ID,1683971232
154,broken hill,-31.95,141.4333,61.54,38,25,9.55,AU,1683971232
155,krasnoturansk,54.3186,91.5639,46.85,35,89,13.35,RU,1683971233
156,sao paulo de olivenca,-3.3783,-68.8725,71.08,99,64,2.37,BR,1683971234
157,nayudupet,13.9,79.9,105.22,22,100,16.51,IN,1683971235
158,shakhtinsk,49.71,72.5872,74.59,35,87,23.58,KZ,1683971235
159,smirnykh,49.75,142.8333,55.44,46,96,4.68,RU,1683971236
160,hutang,31.5333,119.4833,76.8,59,95,8.39,CN,1683971236
161,rio gallegos,-51.6226,-69.2181,39.25,70,75,9.22,AR,1683970965
162,lebu,-37.6167,-73.65,55.31,96,100,8.34,CL,1683971237
163,dudinka,69.4058,86.1778,15.62,86,99,16.4,RU,1683971238
164,villa gesell,-37.2639,-56.973,50.05,88,95,6.2,AR,1683971035
165,jaleshwar,26.6471,85.8008,104.92,12,0,2.35,NP,1683971239
166,sodra sandby,56.5667,16.6167,66.06,61,6,6.73,SE,1683971240
167,tuy hoa,13.0833,109.3,85.33,74,100,7.18,VN,1683971240
168,vadso,70.0744,29.7487,54.48,58,0,12.66,NO,1683971241
169,belidzhi,41.8918,48.4125,62.17,52,100,9.15,RU,1683971241
170,kavieng,-2.5744,150.7967,80.8,81,100,5.95,PG,1683971242
171,happy valley-goose bay,53.3168,-60.3315,44.91,49,75,9.22,CA,1683971242
172,karratha,-20.7377,116.8463,76.41,45,82,9.48,AU,1683971243
173,hithadhoo,-0.6,73.0833,83.57,76,89,14.94,MV,1683971243
174,sisimiut,66.9395,-53.6735,27.07,70,99,7.9,GL,1683971244
175,badger,64.8,-147.5333,51.67,60,0,5.75,US,1683971244
176,atafu village,-8.5421,-172.5159,83.68,78,20,13.2,TK,1683971245
177,vorgashor,67.5833,63.95,32.94,100,100,10.18,RU,1683971245
178,al faw,29.9776,48.4741,105.8,30,0,7.52,IQ,1683971246
179,gulf shores,30.246,-87.7008,73.08,71,0,5.01,US,1683971246
180,bairnsdale,-37.8333,147.6167,50.05,92,1,3.91,AU,1683971247
181,sambava,-14.2667,50.1667,82.36,66,22,9.71,MG,1683971248
182,edson,53.5835,-116.4356,42.94,93,0,1.14,CA,1683971248
183,awjilah,29.1081,21.2869,86.45,19,99,6.82,LY,1683971249
184,kas,36.2018,29.6377,76.39,55,0,7.78,TR,1683971249
185,barcelos,41.5388,-8.6151,63.91,42,0,4.79,PT,1683971250
186,callao,-12.0667,-77.15,73.69,73,100,6.91,PE,1683971250
187,cidreira,-30.1811,-50.2056,54.18,82,43,5.73,BR,1683971251
188,el granada,37.5027,-122.4694,56.43,93,100,10.36,US,1683971251
189,kribi,2.95,9.9167,86.05,69,100,3.02,CM,1683971252
190,zeya,53.75,127.2667,55.76,36,59,5.41,RU,1683971252
191,tshabong,-26.05,22.45,81.16,18,97,18.61,BW,1683971253
192,brookings,44.3114,-96.7984,60.19,97,40,9.22,US,1683971254
193,chowchilla,37.123,-120.2602,65.03,71,0,4.94,US,1683971254
194,east london,-33.0153,27.9116,59.94,94,75,8.05,ZA,1683971255
195,udachny,66.4167,112.4,27.99,84,100,16.44,RU,1683971256
196,san andres,12.5847,-81.7006,82.42,69,20,13.8,CO,1683971188
197,gadzhiyevo,69.2551,33.3362,39.65,100,100,8.59,RU,1683971257
198,ketchikan,55.3422,-131.6461,50.47,93,100,5.75,US,1683971257
199,benton harbor,42.1167,-86.4542,65.05,93,100,0.0,US,1683971258
200,nemuro,43.3236,145.575,43.88,83,2,11.9,JP,1683971258
201,ebon,4.582,168.6964,83.88,79,99,14.29,MH,1683971259
202,atherton,53.5237,-2.4935,60.48,66,1,1.01,GB,1683971259
203,pingliang,35.5392,106.6861,76.24,18,25,8.61,CN,1683971260
204,bria,6.5423,21.9863,95.05,39,96,3.94,CF,1683971260
205,san antonio de pale,-1.4014,5.6325,82.76,78,100,9.89,GQ,1683971261
206,argo,37.6333,22.7333,66.78,55,70,4.21,GR,1683971262
207,ramhormoz,31.28,49.6035,107.28,8,0,11.27,IR,1683971262
208,st. john's,47.5649,-52.7093,42.57,56,20,10.36,CA,1683971263
209,eyl,7.9803,49.8164,93.49,50,22,16.13,SO,1683971263
210,kolasin,42.8223,19.5165,57.85,60,88,8.48,ME,1683971264
211,guiglo,6.5456,-7.4966,87.94,59,47,2.46,CI,1683971264
212,inhambane,-23.865,35.3833,84.18,62,40,7.0,MZ,1683971265
213,jalai nur,49.45,117.7,66.79,17,10,14.7,CN,1683971266
214,chicoana,-25.1009,-65.5331,44.65,82,0,1.39,AR,1683971266
215,dunedin,-45.8742,170.5036,50.81,82,99,3.0,NZ,1683971098
216,collie,-33.3667,116.15,54.16,71,34,5.28,AU,1683971267
217,peskovka,59.0448,52.3606,57.51,59,100,6.64,RU,1683971268
218,ilebo,-4.3167,20.5833,93.7,42,37,3.36,CD,1683971268
219,adam,22.3756,57.5233,107.35,10,0,9.69,OM,1683971269
220,la passe,45.5549,-0.8967,57.43,75,26,7.45,FR,1683971270
221,haiku-pauwela,20.9219,-156.3051,71.04,78,0,4.61,US,1683971270
222,port alfred,-33.5906,26.891,60.19,95,100,12.06,ZA,1683971271
223,whitehorse,60.7161,-135.0538,43.57,67,40,11.5,CA,1683971271
224,queenstown,-31.8976,26.8753,49.01,93,100,5.77,ZA,1683971272
225,coruripe,-10.1256,-36.1756,77.65,77,85,8.16,BR,1683971272
226,masuguru,-11.3667,38.4167,90.77,44,41,2.28,TZ,1683971273
227,linden,6.0,-58.3,73.11,99,99,2.44,GY,1683971273
228,khilok,51.3674,110.4676,50.2,33,87,12.3,RU,1683971274
229,trairi,-3.2778,-39.2689,75.85,92,81,6.67,BR,1683971274
230,pierre,44.3683,-100.351,63.52,91,100,6.91,US,1683970750
231,ma'rib,15.4591,45.3253,92.68,20,18,9.01,YE,1683971275
232,korla,41.7597,86.1469,85.15,10,67,3.42,CN,1683971276
233,carutapera,-1.195,-46.02,75.83,93,65,0.98,BR,1683971276
234,aitape,-3.1374,142.3475,81.28,82,76,0.63,PG,1683971277
235,mwene-ditu,-7.0,23.45,84.13,47,87,6.13,CD,1683971278
236,watford city,47.8022,-103.2832,51.66,100,100,11.5,US,1683971278
237,bodo,67.28,14.405,51.94,88,40,12.66,NO,1683971279
238,arraial do cabo,-22.9661,-42.0278,67.86,88,75,10.36,BR,1683971279
239,livingston,55.9029,-3.5226,60.58,82,20,8.05,GB,1683971003
240,kruisfontein,-34.0033,24.7314,58.89,89,100,7.56,ZA,1683971280
241,poronaysk,49.2167,143.1167,53.87,47,79,10.96,RU,1683971281
242,conceicao da barra,-18.5933,-39.7322,70.34,94,100,3.98,BR,1683971282
243,kadom,54.5592,42.4675,69.62,39,18,8.9,RU,1683971282
244,klaksvik,62.2266,-6.589,49.12,95,100,18.7,FO,1683971283
245,saint-pierre,-21.3393,55.4781,83.88,61,40,14.97,RE,1683971284
246,porto novo,6.4965,2.6036,85.82,57,59,5.88,BJ,1683971284
247,robore,-18.3333,-59.75,58.75,72,100,1.45,BO,1683971285
248,khovd,48.0056,91.6419,68.04,23,92,28.7,MN,1683971285
249,akcakale,36.7111,38.9475,82.69,27,0,17.36,TR,1683971286
250,aykhal,66.0,111.5,25.52,90,100,14.32,RU,1683971286
251,christchurch,-43.5333,172.6333,53.91,82,100,8.05,NZ,1683971104
252,wad az zaki,14.4619,32.2065,109.42,4,6,15.05,SD,1683971287
253,polyarnyy,69.1989,33.4478,41.2,97,100,8.77,RU,1683971288
254,arteche,12.2645,125.4048,79.83,78,97,5.32,PH,1683971288
255,kingston,17.997,-76.7936,72.21,85,93,2.21,JM,1683971224
256,aracati,-4.5617,-37.7697,78.21,86,83,6.78,BR,1683971289
257,camargo,27.6667,-105.1667,62.04,58,26,7.61,MX,1683971290
258,broome,42.2506,-75.833,59.65,79,100,3.15,US,1683971291
259,enewetak,11.3474,162.3373,81.95,84,15,17.92,MH,1683971291
260,sakaiminato,35.55,133.2333,58.98,82,100,6.91,JP,1683971292
261,prince rupert,54.3161,-130.3201,53.29,91,100,25.32,CA,1683971262
262,vila franca do campo,37.7167,-25.4333,64.81,75,30,6.44,PT,1683971293
263,juegang,32.3174,121.1855,71.47,66,61,8.81,CN,1683971293
264,big rapids,43.6981,-85.4837,59.07,77,40,0.0,US,1683971216
265,pointe-du-lac,46.2869,-72.6845,51.69,69,0,4.61,CA,1683971295
266,sur,22.5667,59.5289,97.39,38,0,3.06,OM,1683971295
267,namibe,-15.1961,12.1522,77.94,63,0,7.29,AO,1683971295
268,rangia,26.4667,91.6333,96.75,13,99,13.06,IN,1683971296
269,redding,40.5865,-122.3917,71.37,67,0,8.05,US,1683971035
270,aconibe,1.2968,10.9369,83.66,64,100,2.35,GQ,1683971297
271,freetown,8.484,-13.2299,78.51,89,40,3.44,SL,1683971231
272,cadale,2.7603,46.3222,85.3,71,22,19.86,SO,1683971298
273,sirte,31.2089,16.5887,87.71,24,68,20.56,LY,1683971298
274,richards bay,-28.783,32.0377,74.75,60,94,11.56,ZA,1683971299
275,tucuma,-0.1833,-50.05,76.17,91,69,1.79,BR,1683971299
276,benguela,-12.5763,13.4055,84.88,58,4,6.04,AO,1683971299
277,krasnogorskiy,54.6025,61.231,43.9,88,100,11.1,RU,1683971300
278,santo antonio do ica,-3.1022,-67.9397,71.37,99,74,1.99,BR,1683971301
279,college,64.8569,-147.8028,51.75,56,20,5.75,US,1683971301
280,pitimbu,-7.4706,-34.8086,75.79,77,75,3.76,BR,1683971302
281,mount pearl,47.5166,-52.7813,41.74,57,20,10.36,CA,1683971302
282,cestos city,5.46,-9.5828,84.36,74,100,2.13,LR,1683971303
283,remire-montjoly,4.9167,-52.2667,75.24,100,75,0.0,GF,1683971303
284,vallegrande,-18.4897,-64.1069,46.24,96,84,0.4,BO,1683971304
285,vanimo,-2.6741,141.3028,80.71,83,61,2.77,PG,1683971305
286,shanhaiguan,39.9988,119.7564,60.62,72,60,6.98,CN,1683971305
287,almodovar,37.4959,-8.0937,67.48,22,0,12.12,PT,1683971305
288,manado,1.487,124.8455,81.37,94,40,3.44,ID,1683971306
289,jogeva,58.7467,26.3939,65.89,29,7,6.11,EE,1683971306
290,humberto de campos,-2.5983,-43.4611,76.01,94,92,2.21,BR,1683971307
291,centerville,39.6284,-84.1594,66.9,96,100,6.91,US,1683971260
292,praia da vitoria,38.7333,-27.0667,68.76,82,40,7.02,PT,1683971308
293,dzhambeyty,50.2536,52.595,65.41,41,82,18.43,KZ,1683971309
294,sarmiento,-45.5882,-69.07,51.57,73,100,6.78,AR,1683971309
295,susuman,62.7833,148.1667,28.11,96,100,4.79,RU,1683971310
296,guarapari,-20.6667,-40.4975,70.9,86,84,7.31,BR,1683971310
297,kuta,-8.7233,115.1723,82.35,78,20,13.0,ID,1683971311
298,buenos aires,-34.6132,-58.3772,57.99,87,0,8.05,AR,1683971090
299,macusani,-14.0833,-70.4333,32.2,82,100,0.36,PE,1683971312
300,hermanus,-34.4187,19.2345,60.8,55,57,19.91,ZA,1683971313
301,yemva,62.59,50.8594,47.79,75,100,7.67,RU,1683971313
302,berrotaran,-32.451,-64.3887,52.07,61,92,2.55,AR,1683971314
303,lockwood,45.8191,-108.4149,54.41,82,100,8.05,US,1683971314
304,mugia,43.1041,-9.2179,64.17,75,31,17.78,ES,1683971315
305,floro,61.5996,5.0328,59.07,87,100,4.61,NO,1683971315
306,washington,47.5001,-120.5015,57.6,55,8,4.81,US,1683971316
307,tofol,5.3248,163.0078,83.62,77,73,10.27,FM,1683971316
308,pangkalanbuun,-2.6833,111.6167,78.73,94,91,3.44,ID,1683971317
309,turkmenbasy,40.0222,52.9552,75.97,35,0,11.5,TM,1683971317
310,talara,-4.5772,-81.2719,75.61,82,69,12.08,PE,1683971318
311,avarua,-21.2078,-159.775,77.05,88,75,17.27,CK,1683971319
312,al muwayh,22.4333,41.7583,99.93,10,0,13.0,SA,1683971319
313,vila velha,-20.3297,-40.2925,70.95,84,75,2.3,BR,1683971320
314,charters towers,-20.1,146.2667,70.09,69,96,12.55,AU,1683971321
315,talcahuano,-36.7167,-73.1167,53.28,100,20,6.91,CL,1683971321
316,sao felix do xingu,-6.6447,-51.995,71.31,99,100,1.03,BR,1683971321
317,samarinda,-0.5,117.15,79.39,91,43,3.31,ID,1683971322
318,aasiaat,68.7098,-52.8699,24.84,83,99,5.93,GL,1683971322
319,island harbour,50.724,-1.2758,59.32,80,43,8.01,GB,1683971323
320,yelizovo,53.1873,158.3805,48.34,46,40,11.18,RU,1683971324
321,chibougamau,49.9168,-74.3659,33.42,80,100,13.8,CA,1683971324
322,bafq,31.6128,55.4107,95.47,6,0,1.97,IR,1683971325
323,calabozo,8.9242,-67.4293,79.18,67,90,6.6,VE,1683971325
324,flying fish cove,-10.4217,105.6791,82.08,74,75,13.8,CX,1683971326
325,ridder,50.355,83.5133,58.35,51,100,4.25,KZ,1683971326
326,lijiang,26.8688,100.2207,63.09,45,100,3.44,CN,1683971327
327,saint-joseph,-21.3667,55.6167,82.78,77,26,7.87,RE,1683971328
328,arevalo,41.0626,-4.7204,49.3,37,19,13.38,ES,1683971328
329,kudahuvadhoo,2.6708,72.8944,82.62,77,100,16.2,MV,1683971329
330,shenjiamen,29.9576,122.298,66.06,73,100,5.23,CN,1683971330
331,ratnagiri,16.9833,73.3,90.27,55,1,11.01,IN,1683971330
332,saldanha,-33.0117,17.9442,66.25,49,0,18.72,ZA,1683971331
333,hammerfest,70.6634,23.6821,48.65,66,75,10.36,NO,1683971332
334,as samawah,31.332,45.2944,101.28,13,4,21.68,IQ,1683971332
335,ixtapa,20.7,-105.2,68.32,58,18,2.28,MX,1683971333
336,kirakira,-10.4544,161.9205,80.28,85,94,5.64,SB,1683971333
337,kasongo-lunda,-6.4667,16.8167,88.02,46,100,2.01,CD,1683971334
338,aarschot,50.9871,4.837,71.08,62,30,9.22,BE,1683971334
339,siwa oasis,29.2041,25.5195,80.85,27,65,3.04,EG,1683971335
340,lompoc,34.6391,-120.4579,56.79,97,100,3.44,US,1683971336
341,labytnangi,66.6572,66.4183,33.78,100,97,7.74,RU,1683971336
342,gereida,11.2811,25.1414,104.43,19,10,4.18,SD,1683971337
343,mariental,-24.6333,17.9667,78.67,20,9,6.35,NA,1683971337
344,kasangulu,-4.5911,15.1708,83.34,63,100,2.46,CD,1683971338
345,shumikha,55.2261,63.2961,39.78,94,100,13.58,RU,1683971338
346,touros,-5.1989,-35.4608,79.48,79,92,4.63,BR,1683971333
347,rusape,-18.5278,32.1284,78.01,29,4,5.86,ZW,1683971339
348,newnham,-41.3833,147.1333,46.67,79,8,4.0,AU,1683971340
349,khanty-mansiysk,61.0042,69.0019,60.12,29,0,15.99,RU,1683971340
350,chiredzi,-21.05,31.6667,86.13,30,5,5.64,ZW,1683971341
351,mangrol,21.1167,70.1167,90.37,57,0,15.99,IN,1683971341
352,skopin,53.8249,39.5505,68.5,45,7,10.27,RU,1683971342
353,zhanaozen,43.3,52.8,66.2,39,100,10.83,KZ,1683971342
354,berezovyy,51.6667,135.7,65.03,48,95,7.63,RU,1683971343
355,taroa,8.7058,171.2275,81.72,84,66,18.43,MH,1683971343
356,iskateley,67.6803,53.1512,32.32,88,99,14.27,RU,1683971344
357,goundam,16.4145,-3.6708,100.4,27,6,18.3,ML,1683971345
358,revda,56.801,59.9303,61.11,27,100,5.44,RU,1683971345
359,pursat,12.3333,103.6667,82.98,73,100,3.85,KH,1683971346
360,yanchep,-31.55,115.6833,65.95,60,54,12.06,AU,1683971346
361,itamaraju,-17.0392,-39.5311,70.72,97,100,1.45,BR,1683971319
362,kayyerkan,69.3786,87.7439,15.3,85,99,15.08,RU,1683971347
363,youssoufia,32.2463,-8.5294,69.33,39,0,8.59,MA,1683971348
364,kone,-21.0595,164.8658,72.68,75,99,5.5,NC,1683971348
365,dhulikhel,27.6189,85.5529,81.95,15,1,4.41,NP,1683971349
366,bagrationovsk,54.3871,20.6437,67.21,52,31,9.51,RU,1683971350
367,santana,-0.0583,-51.1817,77.18,100,0,0.0,BR,1683971350
368,birjand,32.8663,59.2211,88.27,8,20,13.8,IR,1683971351
369,rio grande,-32.035,-52.0986,53.87,78,77,7.87,BR,1683971351
370,mulanje,-16.0316,35.5,82.56,41,0,4.41,MW,1683971352
371,chongwe,-15.3292,28.682,79.38,25,3,7.11,ZM,1683971352
372,bhimunipatnam,17.8833,83.4333,94.51,62,86,17.13,IN,1683971353
373,tidjikja,18.5564,-11.4271,99.48,8,33,8.01,MR,1683971354
374,tobelo,1.7284,128.0095,81.43,83,26,5.75,ID,1683971354
375,north tamworth,-31.0778,150.9261,59.11,58,100,10.36,AU,1683971355
376,opuwo,-18.0607,13.84,84.81,20,50,2.68,NA,1683971355
377,at-bashi,41.1702,75.8106,63.63,39,86,7.72,KG,1683971356
378,nelson bay,-32.7167,152.15,64.0,97,7,4.0,AU,1683971356
379,kongsberg,59.6652,9.6465,65.7,55,95,3.53,NO,1683971357
380,qalat,32.1058,66.9083,85.14,9,1,29.53,AF,1683971357
381,antofagasta,-23.65,-70.4,65.48,83,11,1.28,CL,1683971252
382,codrington,-38.2667,141.9667,49.39,89,3,7.25,AU,1683971359
383,madingou,-4.1536,13.55,81.41,81,100,2.15,CG,1683971359
384,visby,57.6409,18.296,66.04,34,0,5.75,SE,1683971263
385,acapulco de juarez,16.8634,-99.8901,78.35,79,92,2.98,MX,1683971360
386,yuzhno-kurilsk,44.0306,145.8556,46.0,81,0,9.8,RU,1683971361
387,swaffham,52.6469,0.6887,49.48,87,100,13.8,GB,1683971361
388,franklin,39.9667,-83.0166,67.05,98,100,5.75,US,1683971337
389,mil'kovo,55.6078,37.7956,70.29,32,74,11.81,RU,1683971363
390,oriximina,-1.7656,-55.8661,73.63,97,100,1.88,BR,1683971332
391,ustyuzhna,58.8394,36.4321,65.79,40,54,12.97,RU,1683971363
392,huron,41.1501,-82.5499,64.98,92,100,1.97,US,1683971364
393,carnarvon,-24.8667,113.6333,72.19,65,1,17.09,AU,1683971364
394,northam,51.0333,-4.2167,60.26,80,3,9.66,GB,1683971365
395,aleksandrov gay,50.147,48.5704,69.35,32,44,10.83,RU,1683971366
396,cam ranh,11.9214,109.1591,87.76,70,20,8.05,VN,1683971366
397,khorugh,37.4897,71.553,63.12,34,60,5.73,TJ,1683971367
398,chinde,26.8418,88.0763,84.81,24,24,8.75,NP,1683971367
399,zadar,44.1197,15.2422,66.81,59,40,14.97,HR,1683971368
400,balqash,46.8481,74.995,88.39,13,0,22.37,KZ,1683971368
401,huilong,31.8111,121.655,68.04,72,85,11.54,CN,1683971369
402,kushiro,42.975,144.3747,47.35,87,75,9.22,JP,1683971369
403,novyy urengoy,66.0833,76.6333,27.79,81,23,17.11,RU,1683971370
404,la'ie,21.6477,-157.9253,75.16,83,29,6.62,US,1683971371
405,kamalia,30.7333,72.65,111.65,5,0,8.19,PK,1683971371
406,nasir,15.5894,32.5634,108.3,4,27,14.45,SD,1683971372
407,arkhangel'sk,64.5401,40.5433,51.13,57,82,8.68,RU,1683971372
408,tura,25.5198,90.2201,98.76,18,61,2.84,IN,1683971373
409,kitui,-1.367,38.0106,76.46,60,96,9.4,KE,1683971373
410,shizunai-furukawacho,42.3339,142.3669,48.56,74,100,6.46,JP,1683971374
411,dongola,19.1667,30.4833,102.42,10,1,16.37,SD,1683971375
412,kale,50.9581,1.8521,54.0,86,26,16.75,FR,1683971375
413,weno,7.4515,151.8468,82.35,89,75,0.0,FM,1683971375
414,lerwick,60.1545,-1.1494,48.2,86,100,11.56,GB,1683971376
415,ancud,-41.8697,-73.8203,55.17,96,100,14.92,CL,1683971253
416,cullowhee,35.3137,-83.1765,61.38,96,100,0.0,US,1683971377
417,filadelfia,39.9523,-75.1638,69.15,88,100,4.61,US,1683971245
418,ola,59.5833,151.2833,37.15,89,97,4.85,RU,1683971378
419,chernyshevskiy,63.0128,112.4714,42.48,68,96,6.17,RU,1683971379
420,laojunmiao,39.8333,97.7333,69.67,7,95,21.97,CN,1683971379
421,salinopolis,-0.6136,-47.3561,78.4,85,32,1.52,BR,1683971319
422,minas de marcona,-15.2119,-75.1103,58.37,83,0,3.44,PE,1683971380
423,ende,-8.8432,121.6623,75.63,80,45,5.55,ID,1683971381
424,nantucket,41.2835,-70.0995,64.45,88,0,14.97,US,1683971134
425,crane,31.3974,-102.3501,63.1,82,98,5.79,US,1683971382
426,tabuk,17.4189,121.4443,82.06,76,98,11.48,PH,1683971382
427,katsuura,35.1333,140.3,63.18,63,100,13.29,JP,1683971383
428,ambositra,-20.5167,47.25,71.04,66,3,2.98,MG,1683971383
429,belmonte,-15.8631,-38.8828,76.08,84,43,3.02,BR,1683971384
430,loanda,-8.8368,13.2343,84.2,74,75,4.61,AO,1683971384
431,tsetserleg,47.475,101.4542,58.39,29,100,14.7,MN,1683971385
432,suva,-18.1416,178.4415,74.68,100,75,11.5,FJ,1683971385
433,bintulu,3.1667,113.0333,77.41,100,40,3.44,MY,1683971386
434,mulayjah,27.271,48.4242,113.04,6,2,12.15,SA,1683971387
435,limavady,55.0504,-6.9507,61.38,100,75,2.3,GB,1683971344
436,urengoy,65.9667,78.3667,28.35,73,19,16.89,RU,1683971387
437,quibdo,5.6947,-76.6611,74.66,99,100,1.1,CO,1683971186
438,harstad,68.799,16.5293,50.16,91,98,25.01,NO,1683971388
439,kidal,18.4411,1.4078,97.77,26,3,10.16,ML,1683971389
440,mega,4.05,38.3,67.53,72,97,10.98,ET,1683971390
441,ghat,24.9647,10.1728,94.68,11,24,9.24,LY,1683971391
442,kwadukuza,-29.3282,31.2895,71.49,61,100,7.05,ZA,1683971220
443,san luis de la loma,17.2706,-100.8939,79.18,79,88,3.09,MX,1683971392
444,cruzilia,-21.8386,-44.8083,50.23,95,2,2.59,BR,1683971393
445,nuuk,64.1835,-51.7216,30.81,86,100,8.05,GL,1683971393
446,laguna,38.421,-121.4238,64.63,80,0,4.61,US,1683971395
447,mont-dore,-22.2833,166.5833,75.99,99,100,12.73,NC,1683971395
448,abdulino,53.7,53.6667,54.88,65,97,9.71,RU,1683971395
449,severo-yeniseyskiy,60.3725,93.0408,25.03,74,100,10.04,RU,1683971396
450,arkansas city,37.062,-97.0384,64.62,77,0,0.0,US,1683971396
451,si sa ket,14.8333,104.3333,85.87,63,89,5.19,TH,1683971397
452,altay,47.8667,88.1167,71.96,35,26,17.22,CN,1683971398
453,rabaul,-4.1967,152.1721,80.74,78,100,2.01,PG,1683971398
454,vavuniya,8.7514,80.4971,90.48,56,92,11.54,LK,1683971399
455,ingeniero jacobacci,-41.3427,-69.5448,46.38,90,100,5.5,AR,1683971399
456,lodja,-3.4833,23.4333,92.57,45,92,4.14,CD,1683971400
457,chul'man,56.8479,124.9104,34.14,96,100,3.74,RU,1683971400
458,portland,45.5234,-122.6762,64.33,70,0,4.61,US,1683971256
459,keflavik,64.0049,-22.5624,48.11,81,75,11.5,IS,1683971401
460,ilha de mocambique,-15.0342,40.7358,81.9,67,0,9.4,MZ,1683971402
461,kupino,54.3663,77.2981,56.28,22,97,13.49,RU,1683971402
462,bayevo,53.2833,80.7667,59.76,23,47,7.7,RU,1683971403
463,arkhara,49.4212,130.0842,53.35,83,100,6.87,RU,1683971403
464,charlottetown,46.2352,-63.1267,50.56,90,100,11.5,CA,1683971399
465,goba,7.0167,39.9833,68.58,40,46,8.14,ET,1683971405
466,tsiombe,-25.3,45.4833,86.16,42,1,3.98,MG,1683971405
467,santa ana,33.7456,-117.8678,61.25,87,100,4.61,US,1683971345
468,qoryooley,1.7878,44.53,91.67,49,11,18.07,SO,1683971406
469,chongju,39.6933,125.2103,56.07,86,100,3.15,KP,1683971407
470,palikir - national government center,6.9248,158.1611,81.34,89,100,0.0,FM,1683971407
471,amasra,41.7463,32.3863,64.45,72,41,6.31,TR,1683971408
472,kapa'a,22.0752,-159.319,71.58,88,100,5.75,US,1683971409
473,fasa,28.9383,53.6482,92.44,7,0,16.11,IR,1683971304
474,ushtobe,45.2514,77.9838,81.7,30,51,13.53,KZ,1683971409
475,penzance,50.1186,-5.5371,59.68,82,20,11.5,GB,1683971410
476,kuqa,41.7278,82.9364,87.28,9,35,9.28,CN,1683971410
477,patterson,37.4716,-121.1297,64.35,85,0,2.64,US,1683971411
478,choibalsan,48.0667,114.5,77.11,14,53,14.99,MN,1683971412
479,omiya,36.55,140.4167,60.49,93,100,3.89,JP,1683971412
480,vuosaari,60.2083,25.1436,74.48,35,0,5.75,FI,1683971413
481,redwood falls,44.5394,-95.1169,60.82,88,100,10.36,US,1683971413
482,nuku'alofa,-21.1333,-175.2,75.54,83,75,13.8,TO,1683971414
483,cleburne,32.3476,-97.3867,69.35,96,75,4.61,US,1683971414
484,khark,29.2614,50.3306,98.62,32,0,0.0,IR,1683971415
485,peterhead,57.5058,-1.7981,60.46,85,92,12.35,GB,1683971415
486,fort mcmurray,56.7268,-111.381,54.99,62,0,5.75,CA,1683971416
487,constantia,44.1833,28.65,66.88,49,99,6.76,RO,1683971221
488,ardestan,33.3761,52.3694,90.66,8,0,4.79,IR,1683971417
489,bukama,-9.2,25.85,89.47,41,20,2.33,CD,1683971417
490,naifaru,5.4444,73.3657,82.24,77,98,8.03,MV,1683971418
491,ambovombe,-25.1667,46.0833,80.78,52,0,6.67,MG,1683971418
492,arno,60.1167,18.6333,47.79,38,16,6.04,SE,1683971419
493,westerland,54.9079,8.3033,68.02,42,0,13.8,DE,1683971419
494,marang,5.2056,103.2059,91.31,66,17,6.85,MY,1683971420
495,kasane,-17.8167,25.15,87.13,19,38,5.03,BW,1683971420
496,achit,56.7985,57.8994,59.65,42,80,5.75,RU,1683971421
497,saint-philippe,-21.3585,55.7679,83.79,79,35,11.72,RE,1683971421
498,morehead city,34.7229,-76.726,70.0,86,0,6.91,US,1683971422
499,sao raimundo nonato,-9.0153,-42.6994,75.58,73,97,1.7,BR,1683971331
500,i-n-salah,27.1935,2.4607,103.48,10,2,21.88,DZ,1683971423
501,ulladulla,-35.35,150.4667,49.77,80,90,0.56,AU,1683971252
502,yuanping,38.7153,112.7575,78.06,18,86,3.24,CN,1683971424
503,ko pha ngan,9.7578,100.0291,86.68,71,98,14.63,TH,1683971425
504,san mariano,7.5,126.0,78.21,90,44,1.52,PH,1683971425
505,asha,54.9973,57.2722,46.18,91,100,7.0,RU,1683971426
506,grand-bassam,5.2118,-3.7388,87.76,66,72,6.06,CI,1683971426
507,ndele,8.4109,20.6473,100.87,30,68,2.98,CF,1683971427
508,ambon,-3.6954,128.1814,77.23,15,75,3.44,ID,1683971184
509,pangai,-19.8,-174.35,77.79,82,28,15.17,TO,1683971428
510,pisco,-13.7,-76.2167,69.85,78,100,5.75,PE,1683971429
511,walvis bay,-22.9575,14.5053,61.09,58,57,8.68,NA,1683971429
512,dutsin-ma,12.4517,7.4981,97.45,15,24,4.83,NG,1683971430
513,taltal,-25.4,-70.4833,60.53,84,38,2.71,CL,1683971430
514,sandnessjoen,66.0217,12.6316,57.72,85,17,9.37,NO,1683971431
515,kazlu ruda,54.7667,23.5,73.38,46,57,7.31,LT,1683971431
516,stephenville,32.2207,-98.2023,62.73,94,0,4.61,US,1683971432
517,shizuishan,39.2333,106.7694,82.13,6,100,20.38,CN,1683971433
518,rice lake,45.5061,-91.7382,62.28,85,100,8.05,US,1683971433
519,namtsy,62.7161,129.6658,47.3,47,3,9.71,RU,1683971434
520,bitam,2.076,11.5007,78.85,73,75,2.21,GA,1683971434
521,lloydminster,53.2835,-110.0016,52.02,76,0,12.66,CA,1683971435
522,nouadhibou,20.931,-17.0347,66.18,94,40,13.8,MR,1683971435
523,swakopmund,-22.6833,14.5333,60.98,84,30,5.99,NA,1683971436
524,saudarkrokur,65.7461,-19.6394,46.8,55,92,12.3,IS,1683971437
525,beykonak,36.3257,30.303,73.42,59,0,7.52,TR,1683971437
526,mali,12.079,-12.2982,78.91,40,100,3.49,GN,1683971438
527,zhuji,29.7188,120.2423,71.04,73,100,4.09,CN,1683971438
528,sittwe,20.15,92.9,79.79,88,100,12.33,MM,1683971439
529,rozavlea,47.7333,24.2167,50.34,80,100,2.01,RO,1683971439
530,svirsk,53.0858,103.3325,52.12,56,72,1.77,RU,1683971440
531,sikonge,-5.6333,32.7667,82.31,46,13,6.44,TZ,1683971441
532,vicuna mackenna,-33.9197,-64.3922,57.56,68,87,5.17,AR,1683971441
533,darwin,-12.4611,130.8418,80.58,70,0,3.44,AU,1683971442
534,tlaltenango de sanchez roman,21.7833,-103.3167,57.76,34,64,2.33,MX,1683971442
535,mount gambier,-37.8333,140.7667,49.46,71,0,3.47,AU,1683971371
536,adh dhayd,25.2881,55.8816,106.47,11,0,18.39,AE,1683971443
537,guerrero negro,27.9769,-114.0611,58.42,82,62,13.49,MX,1683971444
538,lazaro cardenas,17.9583,-102.2,78.44,75,99,3.24,MX,1683971444
539,fort-shevchenko,44.5086,50.263,60.57,67,100,8.7,KZ,1683971445
540,shache,38.4167,77.2406,87.28,6,95,8.39,CN,1683971445
541,port macquarie,-31.4333,152.9167,58.89,80,1,1.86,AU,1683971230
542,bengkulu,-3.8004,102.2655,83.03,83,89,3.11,ID,1683971446
543,emkhomazi,-30.2067,30.7978,69.67,82,100,27.0,ZA,1683971308
544,mossel bay,-34.1831,22.146,57.13,65,100,13.56,ZA,1683971447
545,san borja,-14.8167,-66.85,68.07,86,95,3.15,BO,1683971448
546,frankfort,-27.2667,28.4833,73.74,22,3,10.98,ZA,1683971448
547,bellaria-igea marina,44.1421,12.47,66.56,83,75,6.91,IT,1683971449
548,kiruna,67.8557,20.2251,47.32,57,7,13.8,SE,1683971450
549,sagua la grande,22.8067,-80.0756,72.59,85,49,6.44,CU,1683971450
550,kavarna,43.4333,28.3333,63.68,53,50,6.17,BG,1683971451
551,nizhniy kuranakh,58.8353,125.4869,36.52,98,87,2.62,RU,1683971452
552,las tablas,7.7667,-80.2833,78.17,99,62,8.28,PA,1683971452
553,ceeldheer,3.8488,47.1806,91.09,54,11,22.24,SO,1683971453
554,ilovlya,49.3033,43.9796,68.79,37,27,7.52,RU,1683971454
555,quellon,-43.1167,-73.6167,59.25,94,100,9.22,CL,1683971454
556,petauke,-14.2426,31.3253,82.67,27,0,3.87,ZM,1683971455
557,tabou,4.423,-7.3528,84.69,75,100,4.59,CI,1683971455
558,havre,49.5833,0.3333,58.19,87,100,12.66,FR,1683971456
559,palmer,42.1584,-72.3287,66.18,88,100,3.44,US,1683971457
560,recodo,6.9519,121.9636,87.82,70,20,5.75,PH,1683971457
561,menongue,-14.6585,17.691,82.31,23,2,4.7,AO,1683971458
562,jiangzi,28.95,89.6333,48.0,5,0,7.67,CN,1683971458
563,mareeba,-17.0,145.4333,70.52,82,51,3.67,AU,1683971459
564,mando,10.7167,6.5667,100.83,24,88,1.72,NG,1683971459
565,tan-tan,28.438,-11.1032,66.15,72,75,20.71,MA,1683971460
566,kambove,-10.8764,26.5969,77.52,44,9,5.35,CD,1683971461
567,kamaishi,39.2667,141.8833,54.36,89,100,5.97,JP,1683971461
